{
  "route": {
    "latMax": "37.79839",
    "stop": [
      {
        "lon": "-122.43468",
        "title": "Jackson St & Fillmore St",
        "stopId": "15147",
        "tag": "5147",
        "lat": "37.7925299"
      },
      {
        "lon": "-122.4361099",
        "title": "Jackson St & Steiner St",
        "stopId": "15162",
        "tag": "5162",
        "lat": "37.79235"
      },
      {
        "lon": "-122.43613",
        "title": "Steiner St & Washington St",
        "stopId": "16494",
        "tag": "6494",
        "lat": "37.79145"
      },
      {
        "lon": "-122.43448",
        "title": "Washington St & Fillmore St",
        "stopId": "16916",
        "tag": "6916",
        "lat": "37.7914999"
      },
      {
        "lon": "-122.43284",
        "title": "Washington St & Webster St",
        "stopId": "16931",
        "tag": "6931",
        "lat": "37.7917199"
      },
      {
        "lon": "-122.43119",
        "title": "Washington St & Buchanan St",
        "stopId": "16915",
        "tag": "6915",
        "lat": "37.7919199"
      },
      {
        "lon": "-122.42912",
        "title": "Washington St & Laguna St",
        "stopId": "16923",
        "tag": "6923",
        "lat": "37.7921799"
      },
      {
        "lon": "-122.4262499",
        "title": "Washington St & Gough St",
        "stopId": "16918",
        "tag": "6918",
        "lat": "37.79255"
      },
      {
        "lon": "-122.4246099",
        "title": "Washington St & Franklin St",
        "stopId": "16917",
        "tag": "6917",
        "lat": "37.79276"
      },
      {
        "lon": "-122.423",
        "title": "Van Ness Ave & Jackson St",
        "stopId": "16813",
        "tag": "6813",
        "lat": "37.79418"
      },
      {
        "lon": "-122.4228999",
        "title": "Pacific Ave & Van Ness Ave",
        "stopId": "15859",
        "tag": "5859",
        "lat": "37.79478"
      },
      {
        "lon": "-122.42125",
        "title": "Pacific Ave & Polk St",
        "stopId": "15851",
        "tag": "5851",
        "lat": "37.795"
      },
      {
        "lon": "-122.4200299",
        "title": "Pacific Ave & Larkin St",
        "stopId": "15844",
        "tag": "5844",
        "lat": "37.79515"
      },
      {
        "lon": "-122.41839",
        "title": "Pacific Ave & Hyde St",
        "stopId": "15839",
        "tag": "5839",
        "lat": "37.7953799"
      },
      {
        "lon": "-122.4167399",
        "title": "Pacific Ave & Leavenworth St",
        "stopId": "15846",
        "tag": "5846",
        "lat": "37.79559"
      },
      {
        "lon": "-122.4150999",
        "title": "Pacific Ave & Jones St",
        "stopId": "15841",
        "tag": "5841",
        "lat": "37.79579"
      },
      {
        "lon": "-122.4134599",
        "title": "Pacific Ave & Taylor St",
        "stopId": "15857",
        "tag": "5857",
        "lat": "37.796"
      },
      {
        "lon": "-122.41181",
        "title": "Pacific Ave & Mason St",
        "stopId": "15848",
        "tag": "5848",
        "lat": "37.7962099"
      },
      {
        "lon": "-122.41017",
        "title": "Pacific Ave & Powell St",
        "stopId": "15853",
        "tag": "5853",
        "lat": "37.7964099"
      },
      {
        "lon": "-122.40829",
        "title": "Broadway & Stockton St",
        "stopId": "13087",
        "tag": "3087",
        "lat": "37.7975899"
      },
      {
        "lon": "-122.40634",
        "title": "Broadway & Columbus Ave",
        "stopId": "13082",
        "tag": "3082",
        "lat": "37.7978299"
      },
      {
        "lon": "-122.40396",
        "title": "Broadway & Montgomery St",
        "stopId": "13084",
        "tag": "3084",
        "lat": "37.7981299"
      },
      {
        "lon": "-122.4023399",
        "title": "Broadway & Sansome St",
        "stopId": "17862",
        "tag": "7862",
        "lat": "37.79839"
      },
      {
        "lon": "-122.40191",
        "title": "Sansome St & Jackson St",
        "stopId": "17863",
        "tag": "7863",
        "lat": "37.79653"
      },
      {
        "lon": "-122.40149",
        "title": "Sansome St & Clay St",
        "stopId": "16328",
        "tag": "6328",
        "lat": "37.79447"
      },
      {
        "lon": "-122.40122",
        "title": "Sansome St & California St",
        "stopId": "16327",
        "tag": "6327",
        "lat": "37.7931799"
      },
      {
        "lon": "-122.4006099",
        "title": "Sansome St & Sutter St",
        "stopId": "16334",
        "tag": "6334",
        "lat": "37.7903399"
      },
      {
        "lon": "-122.40065",
        "title": "2nd St & Stevenson St",
        "stopId": "13013",
        "tag": "3013",
        "lat": "37.78862"
      },
      {
        "lon": "-122.39811",
        "title": "2nd St & Howard St",
        "stopId": "13011",
        "tag": "3011",
        "lat": "37.7865599"
      },
      {
        "lon": "-122.3950199",
        "title": "2nd St & Harrison St",
        "stopId": "13010",
        "tag": "3010",
        "lat": "37.7840999"
      },
      {
        "lon": "-122.39223",
        "title": "2nd St & Brannan St",
        "stopId": "13004",
        "tag": "3004",
        "lat": "37.78185"
      },
      {
        "lon": "-122.39068",
        "title": "2nd St & Townsend St",
        "stopId": "13015",
        "tag": "3015",
        "lat": "37.78062"
      },
      {
        "lon": "-122.39304",
        "title": "Townsend St & 3rd St",
        "stopId": "16692",
        "tag": "6692",
        "lat": "37.7787199"
      },
      {
        "lon": "-122.39497",
        "title": "Townsend St & 4th St",
        "stopId": "16694",
        "tag": "6694",
        "lat": "37.7771899"
      },
      {
        "lon": "-122.3971999",
        "title": "Townsend St & 5th St",
        "stopId": "16696",
        "tag": "6696",
        "lat": "37.77543"
      },
      {
        "lon": "-122.3994199",
        "title": "Townsend St & 6th St",
        "stopId": "16698",
        "tag": "6698",
        "lat": "37.77368"
      },
      {
        "lon": "-122.40195",
        "title": "Townsend St & 7th St",
        "stopId": "16701",
        "tag": "6701",
        "lat": "37.7716999"
      },
      {
        "lon": "-122.4031499",
        "title": "Division St & Rhode Island St",
        "stopId": "14437",
        "tag": "4437",
        "lat": "37.76976"
      },
      {
        "lon": "-122.4030399",
        "title": "Rhode Island St & Alameda St",
        "stopId": "16201",
        "tag": "6201",
        "lat": "37.7687399"
      },
      {
        "lon": "-122.4029099",
        "title": "Rhode Island St & 15th St",
        "stopId": "16187",
        "tag": "6187",
        "lat": "37.7674699"
      },
      {
        "lon": "-122.4028",
        "title": "Rhode Island St & 16th St",
        "stopId": "16190",
        "tag": "6190",
        "lat": "37.76616"
      },
      {
        "lon": "-122.40267",
        "title": "Rhode Island St & 17th St",
        "stopId": "16191",
        "tag": "6191",
        "lat": "37.76487"
      },
      {
        "lon": "-122.40171",
        "title": "17th St & De Haro St OB",
        "stopId": "13313",
        "tag": "3313",
        "lat": "37.7647699"
      },
      {
        "lon": "-122.3977799",
        "title": "Connecticut St & 17th St",
        "stopId": "14124",
        "tag": "4124",
        "lat": "37.7647499"
      },
      {
        "lon": "-122.3975699",
        "title": "Connecticut St & 18th St",
        "stopId": "14125",
        "tag": "4125",
        "lat": "37.7626099"
      },
      {
        "lon": "-122.39747",
        "title": "Connecticut St & 19th St",
        "stopId": "17544",
        "tag": "7544",
        "lat": "37.76133"
      },
      {
        "lon": "-122.3980799",
        "title": "20th St & Arkansas St",
        "stopId": "13412",
        "tag": "3412",
        "lat": "37.75996"
      },
      {
        "lon": "-122.3980399",
        "title": "Arkansas St & 22nd St",
        "stopId": "13652",
        "tag": "3652",
        "lat": "37.7574499"
      },
      {
        "lon": "-122.3978899",
        "title": "Arkansas St & Madera St",
        "stopId": "13653",
        "tag": "3653",
        "lat": "37.7559699"
      },
      {
        "lon": "-122.3967799",
        "title": "23rd St & Dakota",
        "stopId": "17545",
        "tag": "7545",
        "lat": "37.75468"
      },
      {
        "lon": "-122.39576",
        "title": "14 Dakota St",
        "stopId": "14342",
        "tag": "4342",
        "lat": "37.75376"
      },
      {
        "lon": "-122.3948299",
        "title": "25th St & Dakota St",
        "stopId": "13507",
        "tag": "3507",
        "lat": "37.7524999"
      },
      {
        "lon": "-122.39634",
        "title": "25th St & Connecticut St",
        "stopId": "13504",
        "tag": "3504",
        "lat": "37.7523599"
      },
      {
        "lon": "-122.39831",
        "title": "25th St & Wisconsin St",
        "stopId": "13512",
        "tag": "3512",
        "lat": "37.7522399"
      },
      {
        "lon": "-122.39866",
        "title": "26th St & Wisconsin St",
        "stopId": "13524",
        "tag": "3524",
        "lat": "37.7511099"
      },
      {
        "lon": "-122.40015",
        "title": "26th St & De Haro St",
        "stopId": "13516",
        "tag": "3516",
        "lat": "37.7508599"
      },
      {
        "lon": "-122.4011199",
        "title": "26th St & Rhode Island St",
        "stopId": "13522",
        "tag": "3522",
        "lat": "37.75072"
      },
      {
        "lon": "-122.40212",
        "title": "Kansas St & 26th St",
        "stopId": "15229",
        "tag": "5229",
        "lat": "37.7508299"
      },
      {
        "lon": "-122.40222",
        "title": "Kansas St & 25th St",
        "stopId": "15228",
        "tag": "5228",
        "lat": "37.75189"
      },
      {
        "lon": "-122.40248",
        "title": "Kansas St & 23rd St IB",
        "stopId": "15227",
        "tag": "5227",
        "lat": "37.75443"
      },
      {
        "lon": "-122.40391",
        "title": "23rd St & Vermont St",
        "stopId": "13455",
        "tag": "3455",
        "lat": "37.7544799"
      },
      {
        "lon": "-122.40494",
        "title": "23rd St & Utah St",
        "stopId": "13453",
        "tag": "3453",
        "lat": "37.7544199"
      },
      {
        "lon": "-122.40621",
        "title": "24th St & Potrero Ave",
        "stopId": "137518",
        "tag": "37518",
        "lat": "37.7530699"
      },
      {
        "lon": "-122.42148",
        "title": "Pacific Ave & Polk St",
        "stopId": "15850",
        "tag": "5850",
        "lat": "37.7951099"
      },
      {
        "lon": "-122.40621",
        "title": "24th St & Potrero Ave",
        "stopId": "17518",
        "tag": "7518",
        "lat": "37.7530699"
      },
      {
        "lon": "-122.4052999",
        "title": "23rd St & Utah St",
        "stopId": "13454",
        "tag": "3454",
        "lat": "37.7543"
      },
      {
        "lon": "-122.40363",
        "title": "23rd St & Vermont St",
        "stopId": "13456",
        "tag": "3456",
        "lat": "37.7543999"
      },
      {
        "lon": "-122.40267",
        "title": "23rd St & Kansas St",
        "stopId": "13450",
        "tag": "3450",
        "lat": "37.7544499"
      },
      {
        "lon": "-122.40169",
        "title": "23rd St & Rhode Island St",
        "stopId": "13452",
        "tag": "3452",
        "lat": "37.7545099"
      },
      {
        "lon": "-122.40157",
        "title": "Rhode Island St & 24th St",
        "stopId": "16198",
        "tag": "6198",
        "lat": "37.75339"
      },
      {
        "lon": "-122.40147",
        "title": "Rhode Island St & 25th St",
        "stopId": "16199",
        "tag": "6199",
        "lat": "37.75211"
      },
      {
        "lon": "-122.40134",
        "title": "Rhode Island St & 26th St",
        "stopId": "16200",
        "tag": "6200",
        "lat": "37.75073"
      },
      {
        "lon": "-122.40002",
        "title": "26th St & De Haro St",
        "stopId": "13517",
        "tag": "3517",
        "lat": "37.7507499"
      },
      {
        "lon": "-122.39828",
        "title": "Wisconsin St & 26th St",
        "stopId": "16962",
        "tag": "6962",
        "lat": "37.7512799"
      },
      {
        "lon": "-122.39829",
        "title": "25th St & Wisconsin St",
        "stopId": "13513",
        "tag": "3513",
        "lat": "37.75216"
      },
      {
        "lon": "-122.3966199",
        "title": "25th St & Connecticut St",
        "stopId": "13505",
        "tag": "3505",
        "lat": "37.75224"
      },
      {
        "lon": "-122.39468",
        "title": "Dakota St & 25th St",
        "stopId": "14345",
        "tag": "4345",
        "lat": "37.7526799"
      },
      {
        "lon": "-122.39565",
        "title": "101 Dakota St",
        "stopId": "14343",
        "tag": "4343",
        "lat": "37.75374"
      },
      {
        "lon": "-122.39657",
        "title": "Dakota St & 23rd St",
        "stopId": "17546",
        "tag": "7546",
        "lat": "37.75471"
      },
      {
        "lon": "-122.39856",
        "title": "23rd St & Wisconsin St",
        "stopId": "13457",
        "tag": "3457",
        "lat": "37.75481"
      },
      {
        "lon": "-122.3987199",
        "title": "Wisconsin St & Madera St",
        "stopId": "16966",
        "tag": "6966",
        "lat": "37.7557699"
      },
      {
        "lon": "-122.3988599",
        "title": "Wisconsin St & 22nd St",
        "stopId": "16957",
        "tag": "6957",
        "lat": "37.7571899"
      },
      {
        "lon": "-122.3983599",
        "title": "20th St & Arkansas St",
        "stopId": "13413",
        "tag": "3413",
        "lat": "37.75987"
      },
      {
        "lon": "-122.39733",
        "title": "Connecticut St & 19th St",
        "stopId": "14127",
        "tag": "4127",
        "lat": "37.76115"
      },
      {
        "lon": "-122.3974099",
        "title": "Connecticut St & 18th St",
        "stopId": "14126",
        "tag": "4126",
        "lat": "37.7624299"
      },
      {
        "lon": "-122.39766",
        "title": "Connecticut St & 17th St",
        "stopId": "14123",
        "tag": "4123",
        "lat": "37.76498"
      },
      {
        "lon": "-122.40163",
        "title": "De Haro St & 16th St",
        "stopId": "14350",
        "tag": "4350",
        "lat": "37.7660599"
      },
      {
        "lon": "-122.40263",
        "title": "Rhode Island St & 16th St",
        "stopId": "16189",
        "tag": "6189",
        "lat": "37.7663199"
      },
      {
        "lon": "-122.4027299",
        "title": "Rhode Island St & 15th St",
        "stopId": "16188",
        "tag": "6188",
        "lat": "37.7673199"
      },
      {
        "lon": "-122.40284",
        "title": "Rhode Island St & Alameda St",
        "stopId": "16202",
        "tag": "6202",
        "lat": "37.76857"
      },
      {
        "lon": "-122.4032999",
        "title": "Division St & Townsend St",
        "stopId": "14438",
        "tag": "4438",
        "lat": "37.7698899"
      },
      {
        "lon": "-122.40169",
        "title": "Townsend St & 7th St",
        "stopId": "16700",
        "tag": "6700",
        "lat": "37.7717599"
      },
      {
        "lon": "-122.3994399",
        "title": "Townsend St & 6th St",
        "stopId": "16699",
        "tag": "6699",
        "lat": "37.77347"
      },
      {
        "lon": "-122.39721",
        "title": "Townsend St & 5th St",
        "stopId": "16697",
        "tag": "6697",
        "lat": "37.7752299"
      },
      {
        "lon": "-122.39503",
        "title": "Townsend St & 4th St",
        "stopId": "16695",
        "tag": "6695",
        "lat": "37.7770299"
      },
      {
        "lon": "-122.39245",
        "title": "Townsend St & 3rd St",
        "stopId": "16691",
        "tag": "6691",
        "lat": "37.7789799"
      },
      {
        "lon": "-122.39056",
        "title": "2nd St & Townsend. St",
        "stopId": "17547",
        "tag": "7547",
        "lat": "37.7807"
      },
      {
        "lon": "-122.39194",
        "title": "2nd St & Brannan St",
        "stopId": "13003",
        "tag": "3003",
        "lat": "37.78183"
      },
      {
        "lon": "-122.3953199",
        "title": "2nd St & Harrison St",
        "stopId": "13009",
        "tag": "3009",
        "lat": "37.7845299"
      },
      {
        "lon": "-122.39814",
        "title": "2nd St & Howard St",
        "stopId": "17548",
        "tag": "7548",
        "lat": "37.7867599"
      },
      {
        "lon": "-122.40007",
        "title": "2nd St & Stevenson St",
        "stopId": "17549",
        "tag": "7549",
        "lat": "37.78828"
      },
      {
        "lon": "-122.4005",
        "title": "Sansome St & Sutter St",
        "stopId": "17550",
        "tag": "7550",
        "lat": "37.79035"
      },
      {
        "lon": "-122.40086",
        "title": "Sansome St & Pine St",
        "stopId": "16332",
        "tag": "6332",
        "lat": "37.79202"
      },
      {
        "lon": "-122.40131",
        "title": "Sansome St & Sacramento St",
        "stopId": "16333",
        "tag": "6333",
        "lat": "37.7940599"
      },
      {
        "lon": "-122.40166",
        "title": "Sansome St & Washington St",
        "stopId": "16337",
        "tag": "6337",
        "lat": "37.79606"
      },
      {
        "lon": "-122.40237",
        "title": "Pacific Ave & Sansome St",
        "stopId": "15854",
        "tag": "5854",
        "lat": "37.7975399"
      },
      {
        "lon": "-122.4035799",
        "title": "Pacific Ave & Montgomery St",
        "stopId": "15849",
        "tag": "5849",
        "lat": "37.79739"
      },
      {
        "lon": "-122.4052199",
        "title": "Pacific Ave & Kearny St",
        "stopId": "15842",
        "tag": "5842",
        "lat": "37.79717"
      },
      {
        "lon": "-122.40673",
        "title": "Pacific Ave & Grant Ave",
        "stopId": "15837",
        "tag": "5837",
        "lat": "37.7969799"
      },
      {
        "lon": "-122.40858",
        "title": "Pacific Ave & Stockton St",
        "stopId": "17737",
        "tag": "7737",
        "lat": "37.7967299"
      },
      {
        "lon": "-122.40999",
        "title": "Pacific Ave & Powell St",
        "stopId": "15852",
        "tag": "5852",
        "lat": "37.7965599"
      },
      {
        "lon": "-122.4116199",
        "title": "Pacific Ave & Mason St",
        "stopId": "15847",
        "tag": "5847",
        "lat": "37.79638"
      },
      {
        "lon": "-122.41327",
        "title": "Pacific Ave & Taylor St",
        "stopId": "15856",
        "tag": "5856",
        "lat": "37.7961699"
      },
      {
        "lon": "-122.41491",
        "title": "Pacific Ave & Jones St",
        "stopId": "15840",
        "tag": "5840",
        "lat": "37.7959599"
      },
      {
        "lon": "-122.41655",
        "title": "Pacific Ave & Leavenworth St",
        "stopId": "15845",
        "tag": "5845",
        "lat": "37.7957599"
      },
      {
        "lon": "-122.4181999",
        "title": "Pacific Ave & Hyde St",
        "stopId": "15838",
        "tag": "5838",
        "lat": "37.79555"
      },
      {
        "lon": "-122.41986",
        "title": "Pacific Ave & Larkin St",
        "stopId": "15843",
        "tag": "5843",
        "lat": "37.7953299"
      },
      {
        "lon": "-122.42148",
        "title": "Pacific Ave & Polk St",
        "stopId": "115850",
        "tag": "15850",
        "lat": "37.7951099"
      },
      {
        "lon": "-122.4230999",
        "title": "Pacific Ave & Van Ness Ave",
        "stopId": "15858",
        "tag": "5858",
        "lat": "37.79489"
      },
      {
        "lon": "-122.42315",
        "title": "Jackson St & Van Ness Ave",
        "stopId": "15166",
        "tag": "5166",
        "lat": "37.7939499"
      },
      {
        "lon": "-122.4246",
        "title": "Jackson St & Franklin St",
        "stopId": "15148",
        "tag": "5148",
        "lat": "37.7938099"
      },
      {
        "lon": "-122.42621",
        "title": "Jackson St & Gough St",
        "stopId": "15149",
        "tag": "5149",
        "lat": "37.7935799"
      },
      {
        "lon": "-122.4278599",
        "title": "Jackson St & Octavia St",
        "stopId": "15157",
        "tag": "5157",
        "lat": "37.79336"
      },
      {
        "lon": "-122.4295",
        "title": "Jackson St & Laguna St",
        "stopId": "15155",
        "tag": "5155",
        "lat": "37.7931499"
      },
      {
        "lon": "-122.4312",
        "title": "Jackson St & Buchanan St",
        "stopId": "15144",
        "tag": "5144",
        "lat": "37.7929699"
      },
      {
        "lon": "-122.4328099",
        "title": "Jackson St & Webster St",
        "stopId": "17553",
        "tag": "7553",
        "lat": "37.79274"
      },
      {
        "lon": "-122.43468",
        "title": "Jackson St & Fillmore St",
        "stopId": "135147",
        "tag": "35147",
        "lat": "37.7925299"
      },
      {
        "lon": "-122.42148",
        "title": "Pacific Ave & Polk St",
        "stopId": "135850",
        "tag": "35850",
        "lat": "37.7951099"
      }
    ],
    "title": "10-Townsend",
    "lonMin": "-122.43613",
    "color": "b07d00",
    "direction": [
      {
        "stop": [
          {
            "tag": "5147"
          },
          {
            "tag": "5162"
          },
          {
            "tag": "6494"
          },
          {
            "tag": "6916"
          },
          {
            "tag": "6931"
          },
          {
            "tag": "6915"
          },
          {
            "tag": "6923"
          },
          {
            "tag": "6918"
          },
          {
            "tag": "6917"
          },
          {
            "tag": "6813"
          },
          {
            "tag": "5859"
          },
          {
            "tag": "5851"
          },
          {
            "tag": "5844"
          },
          {
            "tag": "5839"
          },
          {
            "tag": "5846"
          },
          {
            "tag": "5841"
          },
          {
            "tag": "5857"
          },
          {
            "tag": "5848"
          },
          {
            "tag": "5853"
          },
          {
            "tag": "3087"
          },
          {
            "tag": "3082"
          },
          {
            "tag": "3084"
          },
          {
            "tag": "7862"
          },
          {
            "tag": "7863"
          },
          {
            "tag": "6328"
          },
          {
            "tag": "6327"
          },
          {
            "tag": "6334"
          },
          {
            "tag": "3013"
          },
          {
            "tag": "3011"
          },
          {
            "tag": "3010"
          },
          {
            "tag": "3004"
          },
          {
            "tag": "3015"
          },
          {
            "tag": "6692"
          },
          {
            "tag": "6694"
          },
          {
            "tag": "6696"
          },
          {
            "tag": "6698"
          },
          {
            "tag": "6701"
          },
          {
            "tag": "4437"
          },
          {
            "tag": "6201"
          },
          {
            "tag": "6187"
          },
          {
            "tag": "6190"
          },
          {
            "tag": "6191"
          },
          {
            "tag": "3313"
          },
          {
            "tag": "4124"
          },
          {
            "tag": "4125"
          },
          {
            "tag": "7544"
          },
          {
            "tag": "3412"
          },
          {
            "tag": "3652"
          },
          {
            "tag": "3653"
          },
          {
            "tag": "7545"
          },
          {
            "tag": "4342"
          },
          {
            "tag": "3507"
          },
          {
            "tag": "3504"
          },
          {
            "tag": "3512"
          },
          {
            "tag": "3524"
          },
          {
            "tag": "3516"
          },
          {
            "tag": "3522"
          },
          {
            "tag": "5229"
          },
          {
            "tag": "5228"
          },
          {
            "tag": "5227"
          },
          {
            "tag": "3455"
          },
          {
            "tag": "3453"
          },
          {
            "tag": "37518"
          }
        ],
        "title": "Outbound to Potrero + 24th Street",
        "useForUI": "true",
        "tag": "10___O_G00",
        "name": "Outbound"
      },
      {
        "stop": [
          {
            "tag": "7518"
          },
          {
            "tag": "3454"
          },
          {
            "tag": "3456"
          },
          {
            "tag": "3450"
          },
          {
            "tag": "3452"
          },
          {
            "tag": "6198"
          },
          {
            "tag": "6199"
          },
          {
            "tag": "6200"
          },
          {
            "tag": "3517"
          },
          {
            "tag": "6962"
          },
          {
            "tag": "3513"
          },
          {
            "tag": "3505"
          },
          {
            "tag": "4345"
          },
          {
            "tag": "4343"
          },
          {
            "tag": "7546"
          },
          {
            "tag": "3457"
          },
          {
            "tag": "6966"
          },
          {
            "tag": "6957"
          },
          {
            "tag": "3413"
          },
          {
            "tag": "4127"
          },
          {
            "tag": "4126"
          },
          {
            "tag": "4123"
          },
          {
            "tag": "4350"
          },
          {
            "tag": "6189"
          },
          {
            "tag": "6188"
          },
          {
            "tag": "6202"
          },
          {
            "tag": "4438"
          },
          {
            "tag": "6700"
          },
          {
            "tag": "6699"
          },
          {
            "tag": "6697"
          },
          {
            "tag": "6695"
          },
          {
            "tag": "6691"
          },
          {
            "tag": "7547"
          },
          {
            "tag": "3003"
          },
          {
            "tag": "3009"
          },
          {
            "tag": "7548"
          },
          {
            "tag": "7549"
          },
          {
            "tag": "7550"
          },
          {
            "tag": "6332"
          },
          {
            "tag": "6333"
          },
          {
            "tag": "6337"
          },
          {
            "tag": "5854"
          },
          {
            "tag": "5849"
          },
          {
            "tag": "5842"
          },
          {
            "tag": "5837"
          },
          {
            "tag": "7737"
          },
          {
            "tag": "5852"
          },
          {
            "tag": "5847"
          },
          {
            "tag": "5856"
          },
          {
            "tag": "5840"
          },
          {
            "tag": "5845"
          },
          {
            "tag": "5838"
          },
          {
            "tag": "5843"
          },
          {
            "tag": "15850"
          },
          {
            "tag": "5858"
          },
          {
            "tag": "5166"
          },
          {
            "tag": "5148"
          },
          {
            "tag": "5149"
          },
          {
            "tag": "5157"
          },
          {
            "tag": "5155"
          },
          {
            "tag": "5144"
          },
          {
            "tag": "7553"
          },
          {
            "tag": "35147"
          }
        ],
        "title": "Inbound to Fillmore + Jackson",
        "useForUI": "true",
        "tag": "10___I_G00",
        "name": "Inbound"
      }
    ],
    "tag": "10",
    "path": [
      {
        "point": [
          {
            "lon": "-122.4229",
            "lat": "37.79478"
          },
          {
            "lon": "-122.42159",
            "lat": "37.7950299"
          },
          {
            "lon": "-122.42125",
            "lat": "37.795"
          },
          {
            "lon": "-122.42003",
            "lat": "37.79515"
          },
          {
            "lon": "-122.41839",
            "lat": "37.79538"
          },
          {
            "lon": "-122.41674",
            "lat": "37.79559"
          },
          {
            "lon": "-122.4151",
            "lat": "37.7957899"
          },
          {
            "lon": "-122.41346",
            "lat": "37.796"
          },
          {
            "lon": "-122.41181",
            "lat": "37.79621"
          },
          {
            "lon": "-122.41017",
            "lat": "37.79641"
          }
        ]
      },
      {
        "point": [
          {
            "lon": "-122.40122",
            "lat": "37.79318"
          },
          {
            "lon": "-122.40061",
            "lat": "37.79034"
          },
          {
            "lon": "-122.40057",
            "lat": "37.79025"
          },
          {
            "lon": "-122.40008",
            "lat": "37.79031"
          },
          {
            "lon": "-122.40139",
            "lat": "37.78927"
          },
          {
            "lon": "-122.40065",
            "lat": "37.78862"
          },
          {
            "lon": "-122.39811",
            "lat": "37.78656"
          }
        ]
      },
      {
        "point": [
          {
            "lon": "-122.40171",
            "lat": "37.76477"
          },
          {
            "lon": "-122.39775",
            "lat": "37.76508"
          },
          {
            "lon": "-122.39778",
            "lat": "37.76475"
          },
          {
            "lon": "-122.39762",
            "lat": "37.7638"
          },
          {
            "lon": "-122.39757",
            "lat": "37.76261"
          },
          {
            "lon": "-122.39747",
            "lat": "37.76133"
          },
          {
            "lon": "-122.39726",
            "lat": "37.75997"
          },
          {
            "lon": "-122.39808",
            "lat": "37.75996"
          },
          {
            "lon": "-122.39823",
            "lat": "37.75991"
          },
          {
            "lon": "-122.39804",
            "lat": "37.75745"
          },
          {
            "lon": "-122.39798",
            "lat": "37.75736"
          },
          {
            "lon": "-122.39789",
            "lat": "37.75597"
          },
          {
            "lon": "-122.39774",
            "lat": "37.75483"
          },
          {
            "lon": "-122.39722",
            "lat": "37.75484"
          },
          {
            "lon": "-122.39678",
            "lat": "37.75468"
          },
          {
            "lon": "-122.39669",
            "lat": "37.75471"
          },
          {
            "lon": "-122.39634",
            "lat": "37.75442"
          },
          {
            "lon": "-122.39576",
            "lat": "37.75376"
          },
          {
            "lon": "-122.39475",
            "lat": "37.75267"
          },
          {
            "lon": "-122.3946",
            "lat": "37.7524299"
          },
          {
            "lon": "-122.39483",
            "lat": "37.7525"
          },
          {
            "lon": "-122.39634",
            "lat": "37.75236"
          },
          {
            "lon": "-122.39831",
            "lat": "37.75224"
          },
          {
            "lon": "-122.39846",
            "lat": "37.7522"
          },
          {
            "lon": "-122.39835",
            "lat": "37.75106"
          },
          {
            "lon": "-122.39866",
            "lat": "37.75111"
          },
          {
            "lon": "-122.39943",
            "lat": "37.751"
          },
          {
            "lon": "-122.40015",
            "lat": "37.75086"
          },
          {
            "lon": "-122.40023",
            "lat": "37.75076"
          },
          {
            "lon": "-122.40112",
            "lat": "37.75072"
          },
          {
            "lon": "-122.4022",
            "lat": "37.75059"
          },
          {
            "lon": "-122.40212",
            "lat": "37.75083"
          },
          {
            "lon": "-122.40222",
            "lat": "37.75189"
          },
          {
            "lon": "-122.40233",
            "lat": "37.75197"
          },
          {
            "lon": "-122.40248",
            "lat": "37.75443"
          },
          {
            "lon": "-122.40257",
            "lat": "37.75452"
          },
          {
            "lon": "-122.40391",
            "lat": "37.75448"
          },
          {
            "lon": "-122.40494",
            "lat": "37.75442"
          },
          {
            "lon": "-122.40547",
            "lat": "37.75434"
          },
          {
            "lon": "-122.40535",
            "lat": "37.75308"
          },
          {
            "lon": "-122.40609",
            "lat": "37.75303"
          },
          {
            "lon": "-122.40621",
            "lat": "37.75307"
          }
        ]
      },
      {
        "point": [
          {
            "lon": "-122.39811",
            "lat": "37.78656"
          },
          {
            "lon": "-122.39502",
            "lat": "37.7841"
          },
          {
            "lon": "-122.39223",
            "lat": "37.78185"
          },
          {
            "lon": "-122.39068",
            "lat": "37.78062"
          },
          {
            "lon": "-122.39054",
            "lat": "37.78061"
          },
          {
            "lon": "-122.39304",
            "lat": "37.77872"
          },
          {
            "lon": "-122.39497",
            "lat": "37.77719"
          }
        ]
      },
      {
        "point": [
          {
            "lon": "-122.41017",
            "lat": "37.79641"
          },
          {
            "lon": "-122.41009",
            "lat": "37.7965"
          },
          {
            "lon": "-122.41028",
            "lat": "37.79743"
          },
          {
            "lon": "-122.40829",
            "lat": "37.79759"
          },
          {
            "lon": "-122.40634",
            "lat": "37.79783"
          },
          {
            "lon": "-122.40396",
            "lat": "37.79813"
          },
          {
            "lon": "-122.40234",
            "lat": "37.79839"
          },
          {
            "lon": "-122.40224",
            "lat": "37.79843"
          },
          {
            "lon": "-122.40205",
            "lat": "37.79751"
          },
          {
            "lon": "-122.40191",
            "lat": "37.79653"
          },
          {
            "lon": "-122.40149",
            "lat": "37.7944699"
          },
          {
            "lon": "-122.40122",
            "lat": "37.79318"
          }
        ]
      },
      {
        "point": [
          {
            "lon": "-122.39814",
            "lat": "37.78676"
          },
          {
            "lon": "-122.40007",
            "lat": "37.78828"
          },
          {
            "lon": "-122.40139",
            "lat": "37.78927"
          },
          {
            "lon": "-122.40008",
            "lat": "37.79031"
          },
          {
            "lon": "-122.40057",
            "lat": "37.79025"
          },
          {
            "lon": "-122.4005",
            "lat": "37.7903499"
          },
          {
            "lon": "-122.40086",
            "lat": "37.79202"
          },
          {
            "lon": "-122.40131",
            "lat": "37.79406"
          }
        ]
      },
      {
        "point": [
          {
            "lon": "-122.40131",
            "lat": "37.79406"
          },
          {
            "lon": "-122.40166",
            "lat": "37.79606"
          },
          {
            "lon": "-122.40205",
            "lat": "37.79751"
          },
          {
            "lon": "-122.40237",
            "lat": "37.79754"
          },
          {
            "lon": "-122.40358",
            "lat": "37.79739"
          },
          {
            "lon": "-122.40522",
            "lat": "37.79717"
          },
          {
            "lon": "-122.40673",
            "lat": "37.79698"
          },
          {
            "lon": "-122.40858",
            "lat": "37.7967299"
          },
          {
            "lon": "-122.40999",
            "lat": "37.79656"
          }
        ]
      },
      {
        "point": [
          {
            "lon": "-122.40169",
            "lat": "37.77176"
          },
          {
            "lon": "-122.39944",
            "lat": "37.77347"
          },
          {
            "lon": "-122.39721",
            "lat": "37.77523"
          },
          {
            "lon": "-122.39503",
            "lat": "37.77703"
          }
        ]
      },
      {
        "point": [
          {
            "lon": "-122.39497",
            "lat": "37.77719"
          },
          {
            "lon": "-122.3972",
            "lat": "37.77543"
          },
          {
            "lon": "-122.39942",
            "lat": "37.77368"
          },
          {
            "lon": "-122.40195",
            "lat": "37.7717"
          }
        ]
      },
      {
        "point": [
          {
            "lon": "-122.42148",
            "lat": "37.79511"
          },
          {
            "lon": "-122.42142",
            "lat": "37.79415"
          },
          {
            "lon": "-122.42306",
            "lat": "37.79394"
          },
          {
            "lon": "-122.42324",
            "lat": "37.79482"
          },
          {
            "lon": "-122.4229",
            "lat": "37.79478"
          },
          {
            "lon": "-122.42159",
            "lat": "37.7950299"
          },
          {
            "lon": "-122.42125",
            "lat": "37.795"
          },
          {
            "lon": "-122.42003",
            "lat": "37.79515"
          },
          {
            "lon": "-122.41839",
            "lat": "37.79538"
          },
          {
            "lon": "-122.41674",
            "lat": "37.79559"
          },
          {
            "lon": "-122.4151",
            "lat": "37.7957899"
          },
          {
            "lon": "-122.41346",
            "lat": "37.796"
          },
          {
            "lon": "-122.41181",
            "lat": "37.79621"
          },
          {
            "lon": "-122.41017",
            "lat": "37.79641"
          }
        ]
      },
      {
        "point": [
          {
            "lon": "-122.40195",
            "lat": "37.7717"
          },
          {
            "lon": "-122.4044",
            "lat": "37.76975"
          },
          {
            "lon": "-122.40315",
            "lat": "37.76976"
          },
          {
            "lon": "-122.40305",
            "lat": "37.76983"
          },
          {
            "lon": "-122.40304",
            "lat": "37.76874"
          },
          {
            "lon": "-122.40291",
            "lat": "37.76747"
          },
          {
            "lon": "-122.4028",
            "lat": "37.76616"
          },
          {
            "lon": "-122.40267",
            "lat": "37.76487"
          },
          {
            "lon": "-122.40258",
            "lat": "37.76479"
          },
          {
            "lon": "-122.40171",
            "lat": "37.76477"
          }
        ]
      },
      {
        "point": [
          {
            "lon": "-122.39503",
            "lat": "37.77703"
          },
          {
            "lon": "-122.39245",
            "lat": "37.77898"
          },
          {
            "lon": "-122.39054",
            "lat": "37.78061"
          },
          {
            "lon": "-122.39056",
            "lat": "37.7807"
          },
          {
            "lon": "-122.39194",
            "lat": "37.78183"
          },
          {
            "lon": "-122.39532",
            "lat": "37.7845299"
          },
          {
            "lon": "-122.39814",
            "lat": "37.78676"
          }
        ]
      },
      {
        "point": [
          {
            "lon": "-122.40163",
            "lat": "37.76606"
          },
          {
            "lon": "-122.40173",
            "lat": "37.76614"
          },
          {
            "lon": "-122.4027",
            "lat": "37.76608"
          },
          {
            "lon": "-122.40263",
            "lat": "37.76632"
          },
          {
            "lon": "-122.40273",
            "lat": "37.76732"
          },
          {
            "lon": "-122.40284",
            "lat": "37.7685699"
          },
          {
            "lon": "-122.40305",
            "lat": "37.76983"
          },
          {
            "lon": "-122.4033",
            "lat": "37.7698899"
          },
          {
            "lon": "-122.40342",
            "lat": "37.76981"
          },
          {
            "lon": "-122.40389",
            "lat": "37.7700699"
          },
          {
            "lon": "-122.40169",
            "lat": "37.77176"
          }
        ]
      },
      {
        "point": [
          {
            "lon": "-122.43468",
            "lat": "37.79253"
          },
          {
            "lon": "-122.43611",
            "lat": "37.79235"
          },
          {
            "lon": "-122.43622",
            "lat": "37.79227"
          },
          {
            "lon": "-122.43613",
            "lat": "37.79145"
          },
          {
            "lon": "-122.43604",
            "lat": "37.79139"
          },
          {
            "lon": "-122.43448",
            "lat": "37.7915"
          },
          {
            "lon": "-122.43284",
            "lat": "37.79172"
          },
          {
            "lon": "-122.43119",
            "lat": "37.79192"
          },
          {
            "lon": "-122.42912",
            "lat": "37.79218"
          },
          {
            "lon": "-122.42625",
            "lat": "37.79255"
          },
          {
            "lon": "-122.42461",
            "lat": "37.79276"
          },
          {
            "lon": "-122.42288",
            "lat": "37.7930599"
          },
          {
            "lon": "-122.423",
            "lat": "37.79418"
          },
          {
            "lon": "-122.42324",
            "lat": "37.79482"
          },
          {
            "lon": "-122.4229",
            "lat": "37.79478"
          }
        ]
      },
      {
        "point": [
          {
            "lon": "-122.40621",
            "lat": "37.75307"
          },
          {
            "lon": "-122.40646",
            "lat": "37.75428"
          },
          {
            "lon": "-122.4053",
            "lat": "37.7543"
          },
          {
            "lon": "-122.40363",
            "lat": "37.7543999"
          },
          {
            "lon": "-122.40267",
            "lat": "37.75445"
          },
          {
            "lon": "-122.40169",
            "lat": "37.75451"
          },
          {
            "lon": "-122.4016",
            "lat": "37.75458"
          },
          {
            "lon": "-122.40157",
            "lat": "37.75339"
          },
          {
            "lon": "-122.40147",
            "lat": "37.75211"
          },
          {
            "lon": "-122.40134",
            "lat": "37.75073"
          },
          {
            "lon": "-122.40124",
            "lat": "37.75064"
          },
          {
            "lon": "-122.40048",
            "lat": "37.75068"
          },
          {
            "lon": "-122.40002",
            "lat": "37.7507499"
          },
          {
            "lon": "-122.39943",
            "lat": "37.751"
          },
          {
            "lon": "-122.39835",
            "lat": "37.75106"
          },
          {
            "lon": "-122.39828",
            "lat": "37.75128"
          },
          {
            "lon": "-122.39846",
            "lat": "37.7522"
          },
          {
            "lon": "-122.39829",
            "lat": "37.75216"
          },
          {
            "lon": "-122.39662",
            "lat": "37.75224"
          },
          {
            "lon": "-122.3946",
            "lat": "37.7524299"
          },
          {
            "lon": "-122.39468",
            "lat": "37.75268"
          },
          {
            "lon": "-122.39475",
            "lat": "37.75267"
          },
          {
            "lon": "-122.39565",
            "lat": "37.75374"
          },
          {
            "lon": "-122.39634",
            "lat": "37.75442"
          },
          {
            "lon": "-122.39657",
            "lat": "37.75471"
          },
          {
            "lon": "-122.39669",
            "lat": "37.75471"
          },
          {
            "lon": "-122.39696",
            "lat": "37.7548"
          },
          {
            "lon": "-122.39774",
            "lat": "37.75483"
          },
          {
            "lon": "-122.39857",
            "lat": "37.7547799"
          },
          {
            "lon": "-122.39856",
            "lat": "37.75481"
          },
          {
            "lon": "-122.39872",
            "lat": "37.75577"
          },
          {
            "lon": "-122.39886",
            "lat": "37.75719"
          },
          {
            "lon": "-122.39919",
            "lat": "37.75986"
          },
          {
            "lon": "-122.39836",
            "lat": "37.75987"
          },
          {
            "lon": "-122.39726",
            "lat": "37.75997"
          },
          {
            "lon": "-122.39733",
            "lat": "37.76115"
          },
          {
            "lon": "-122.39741",
            "lat": "37.76243"
          },
          {
            "lon": "-122.39766",
            "lat": "37.76498"
          },
          {
            "lon": "-122.39775",
            "lat": "37.76508"
          },
          {
            "lon": "-122.40161",
            "lat": "37.76484"
          },
          {
            "lon": "-122.40163",
            "lat": "37.76606"
          }
        ]
      },
      {
        "point": [
          {
            "lon": "-122.40999",
            "lat": "37.79656"
          },
          {
            "lon": "-122.41162",
            "lat": "37.79638"
          },
          {
            "lon": "-122.41327",
            "lat": "37.7961699"
          },
          {
            "lon": "-122.41491",
            "lat": "37.79596"
          },
          {
            "lon": "-122.41655",
            "lat": "37.79576"
          },
          {
            "lon": "-122.4182",
            "lat": "37.79555"
          },
          {
            "lon": "-122.41986",
            "lat": "37.79533"
          },
          {
            "lon": "-122.42148",
            "lat": "37.79511"
          }
        ]
      },
      {
        "point": [
          {
            "lon": "-122.42148",
            "lat": "37.79511"
          },
          {
            "lon": "-122.4231",
            "lat": "37.79489"
          },
          {
            "lon": "-122.42324",
            "lat": "37.79482"
          },
          {
            "lon": "-122.42306",
            "lat": "37.79394"
          },
          {
            "lon": "-122.42315",
            "lat": "37.79395"
          },
          {
            "lon": "-122.4246",
            "lat": "37.79381"
          },
          {
            "lon": "-122.42621",
            "lat": "37.79358"
          },
          {
            "lon": "-122.42786",
            "lat": "37.79336"
          },
          {
            "lon": "-122.4295",
            "lat": "37.79315"
          },
          {
            "lon": "-122.4312",
            "lat": "37.7929699"
          },
          {
            "lon": "-122.43281",
            "lat": "37.79274"
          },
          {
            "lon": "-122.43468",
            "lat": "37.79253"
          }
        ]
      }
    ],
    "lonMax": "-122.39056",
    "oppositeColor": "000000",
    "latMin": "37.75072"
  },
  "copyright": "All data copyright San Francisco Muni 2017."
}