{
  "route": {
    "latMax": "37.74394",
    "stop": [
      {
        "lon": "-122.39082",
        "title": "Palou Ave & 3rd St",
        "stopId": "15863",
        "tag": "5863",
        "lat": "37.7340199"
      },
      {
        "lon": "-122.39266",
        "title": "Palou Ave & Newhall St",
        "stopId": "15878",
        "tag": "5878",
        "lat": "37.73503"
      },
      {
        "lon": "-122.3945299",
        "title": "Palou Ave & Phelps St",
        "stopId": "15879",
        "tag": "5879",
        "lat": "37.7360999"
      },
      {
        "lon": "-122.3940899",
        "title": "Phelps St & Oakdale Ave",
        "stopId": "15938",
        "tag": "5938",
        "lat": "37.73664"
      },
      {
        "lon": "-122.39296",
        "title": "Phelps St & McKinnon Ave",
        "stopId": "15936",
        "tag": "5936",
        "lat": "37.7378699"
      },
      {
        "lon": "-122.39127",
        "title": "Phelps St & Jerrold Ave",
        "stopId": "15934",
        "tag": "5934",
        "lat": "37.7397599"
      },
      {
        "lon": "-122.39297",
        "title": "Jerrold Ave & Quint St",
        "stopId": "15177",
        "tag": "5177",
        "lat": "37.7409"
      },
      {
        "lon": "-122.39493",
        "title": "Jerrold Ave & Rankin St",
        "stopId": "15179",
        "tag": "5179",
        "lat": "37.74209"
      },
      {
        "lon": "-122.39679",
        "title": "Jerrold Ave & Selby St",
        "stopId": "15181",
        "tag": "5181",
        "lat": "37.7433"
      },
      {
        "lon": "-122.3990099",
        "title": "Toland St & Jerrold Ave",
        "stopId": "16687",
        "tag": "6687",
        "lat": "37.74394"
      },
      {
        "lon": "-122.40044",
        "title": "Toland St & McKinnon Ave",
        "stopId": "16688",
        "tag": "6688",
        "lat": "37.7423099"
      },
      {
        "lon": "-122.4015599",
        "title": "Toland St & Oakdale Ave",
        "stopId": "16690",
        "tag": "6690",
        "lat": "37.74107"
      },
      {
        "lon": "-122.4041599",
        "title": "Oakdale Ave & Loomis St",
        "stopId": "17032",
        "tag": "7032",
        "lat": "37.7425299"
      },
      {
        "lon": "-122.40712",
        "title": "Bay Shore Blvd & Cortland Ave",
        "stopId": "13779",
        "tag": "3779",
        "lat": "37.7394599"
      },
      {
        "lon": "-122.4073099",
        "title": "Bay Shore Blvd & Alemany Blvd",
        "stopId": "17313",
        "tag": "7313",
        "lat": "37.7383699"
      },
      {
        "lon": "-122.41117",
        "title": "Crescent Ave & Putnam St",
        "stopId": "14201",
        "tag": "4201",
        "lat": "37.73501"
      },
      {
        "lon": "-122.4135899",
        "title": "Crescent Ave & Folsom St",
        "stopId": "14195",
        "tag": "4195",
        "lat": "37.7347999"
      },
      {
        "lon": "-122.41568",
        "title": "Crescent Ave & Anderson St",
        "stopId": "17689",
        "tag": "7689",
        "lat": "37.73489"
      },
      {
        "lon": "-122.4167199",
        "title": "Crescent Ave & Andover St",
        "stopId": "14189",
        "tag": "4189",
        "lat": "37.7349699"
      },
      {
        "lon": "-122.41863",
        "title": "Crescent Ave & Roscoe St",
        "stopId": "14203",
        "tag": "4203",
        "lat": "37.73506"
      },
      {
        "lon": "-122.42013",
        "title": "Crescent Ave & Murray St",
        "stopId": "14199",
        "tag": "4199",
        "lat": "37.73514"
      },
      {
        "lon": "-122.4225699",
        "title": "Crescent Ave & Leese St",
        "stopId": "14197",
        "tag": "4197",
        "lat": "37.7352399"
      },
      {
        "lon": "-122.42446",
        "title": "Crescent Ave & Mission St",
        "stopId": "14198",
        "tag": "4198",
        "lat": "37.7354199"
      },
      {
        "lon": "-122.4267",
        "title": "Bosworth St & Mission St",
        "stopId": "13703",
        "tag": "3703",
        "lat": "37.7337199"
      },
      {
        "lon": "-122.4293299",
        "title": "Bosworth St & Milton St",
        "stopId": "13701",
        "tag": "3701",
        "lat": "37.73349"
      },
      {
        "lon": "-122.4312999",
        "title": "Bosworth St & Rotteck St",
        "stopId": "13704",
        "tag": "3704",
        "lat": "37.73321"
      },
      {
        "lon": "-122.43422",
        "title": "Diamond St & Bosworth St",
        "stopId": "14387",
        "tag": "4387",
        "lat": "37.7334499"
      },
      {
        "lon": "-122.4377699",
        "title": "Monterey Blvd & Acadia St",
        "stopId": "15420",
        "tag": "5420",
        "lat": "37.7316699"
      },
      {
        "lon": "-122.4396299",
        "title": "Monterey Blvd & Baden St",
        "stopId": "15422",
        "tag": "5422",
        "lat": "37.73167"
      },
      {
        "lon": "-122.4419099",
        "title": "Monterey Blvd & Congo St",
        "stopId": "15424",
        "tag": "5424",
        "lat": "37.73166"
      },
      {
        "lon": "-122.44461",
        "title": "Monterey Blvd & Detroit St",
        "stopId": "15426",
        "tag": "5426",
        "lat": "37.7316399"
      },
      {
        "lon": "-122.4464699",
        "title": "Monterey Blvd & Edna St",
        "stopId": "15428",
        "tag": "5428",
        "lat": "37.73163"
      },
      {
        "lon": "-122.44917",
        "title": "Monterey Blvd & Foerster St",
        "stopId": "15432",
        "tag": "5432",
        "lat": "37.73162"
      },
      {
        "lon": "-122.45144",
        "title": "Monterey Blvd & Gennessee St",
        "stopId": "15435",
        "tag": "5435",
        "lat": "37.7316199"
      },
      {
        "lon": "-122.4532899",
        "title": "Monterey Blvd & Ridgewood Ave",
        "stopId": "15439",
        "tag": "5439",
        "lat": "37.73162"
      },
      {
        "lon": "-122.45565",
        "title": "Monterey Blvd & Valdez Ave",
        "stopId": "15444",
        "tag": "5444",
        "lat": "37.7314499"
      },
      {
        "lon": "-122.4573199",
        "title": "Monterey Blvd & Plymouth Ave",
        "stopId": "15437",
        "tag": "5437",
        "lat": "37.73112"
      },
      {
        "lon": "-122.4604299",
        "title": "Monterey Blvd & Saint Elmo Way",
        "stopId": "15441",
        "tag": "5441",
        "lat": "37.73055"
      },
      {
        "lon": "-122.4614999",
        "title": "Monterey Blvd & El Verano Way",
        "stopId": "15430",
        "tag": "5430",
        "lat": "37.7300799"
      },
      {
        "lon": "-122.4639599",
        "title": "Monterey Blvd & San Jacinto Way",
        "stopId": "15443",
        "tag": "5443",
        "lat": "37.7320299"
      },
      {
        "lon": "-122.4654999",
        "title": "Monterey Blvd & San Anselmo Ave",
        "stopId": "17425",
        "tag": "7425",
        "lat": "37.7331499"
      },
      {
        "lon": "-122.46615",
        "title": "Santa Clara & Saint Francis",
        "stopId": "16375",
        "tag": "6375",
        "lat": "37.73486"
      },
      {
        "lon": "-122.46785",
        "title": "Saint Francis & Santa Ana",
        "stopId": "16505",
        "tag": "6505",
        "lat": "37.7349399"
      },
      {
        "lon": "-122.46958",
        "title": "Saint Francis & San Fernando",
        "stopId": "16507",
        "tag": "6507",
        "lat": "37.7348599"
      },
      {
        "lon": "-122.47187",
        "title": "Sloat Blvd & West Portal Ave",
        "stopId": "16464",
        "tag": "6464",
        "lat": "37.7347799"
      },
      {
        "lon": "-122.47449",
        "title": "Sloat Blvd & 19th Ave",
        "stopId": "16435",
        "tag": "6435",
        "lat": "37.7347799"
      },
      {
        "lon": "-122.47738",
        "title": "Sloat Blvd & 21st Ave",
        "stopId": "16437",
        "tag": "6437",
        "lat": "37.7347499"
      },
      {
        "lon": "-122.48006",
        "title": "Sloat Blvd & Crestlake Dr",
        "stopId": "16456",
        "tag": "6456",
        "lat": "37.7346499"
      },
      {
        "lon": "-122.4822399",
        "title": "Sloat Blvd & Paraiso Pl",
        "stopId": "16460",
        "tag": "6460",
        "lat": "37.73456"
      },
      {
        "lon": "-122.48395",
        "title": "Sloat Blvd & Vale Ave",
        "stopId": "16463",
        "tag": "6463",
        "lat": "37.7344799"
      },
      {
        "lon": "-122.48623",
        "title": "Sloat Blvd & El Mirasol Pl",
        "stopId": "16457",
        "tag": "6457",
        "lat": "37.7343799"
      },
      {
        "lon": "-122.48926",
        "title": "Sloat Blvd & Constanso Way",
        "stopId": "16455",
        "tag": "6455",
        "lat": "37.7342399"
      },
      {
        "lon": "-122.4916099",
        "title": "Sloat Blvd & 34th Ave",
        "stopId": "16441",
        "tag": "6441",
        "lat": "37.7341399"
      },
      {
        "lon": "-122.49365",
        "title": "Sloat Blvd & 36th Ave",
        "stopId": "16442",
        "tag": "6442",
        "lat": "37.7340399"
      },
      {
        "lon": "-122.49677",
        "title": "Sloat Blvd & 39th Ave",
        "stopId": "16445",
        "tag": "6445",
        "lat": "37.7339099"
      },
      {
        "lon": "-122.4992899",
        "title": "Sloat Blvd & 41st Ave",
        "stopId": "16446",
        "tag": "6446",
        "lat": "37.7345699"
      },
      {
        "lon": "-122.5013399",
        "title": "Sloat Blvd & 43rd Ave",
        "stopId": "16448",
        "tag": "6448",
        "lat": "37.7353899"
      },
      {
        "lon": "-122.50341",
        "title": "Sloat Blvd & 45th Ave",
        "stopId": "16450",
        "tag": "6450",
        "lat": "37.7355999"
      },
      {
        "lon": "-122.50535",
        "title": "Sloat Blvd & 47th Ave OB",
        "stopId": "16453",
        "tag": "6453",
        "lat": "37.7355299"
      },
      {
        "lon": "-122.50682",
        "title": "Great Hwy & Sloat Blvd",
        "stopId": "134782",
        "tag": "34782",
        "lat": "37.7354799"
      },
      {
        "lon": "-122.50535",
        "title": "Sloat Blvd & 47th Ave OB",
        "stopId": "136453",
        "tag": "36453",
        "lat": "37.7355299"
      },
      {
        "lon": "-122.50682",
        "title": "Great Hwy & Sloat Blvd",
        "stopId": "14782",
        "tag": "4782",
        "lat": "37.7354799"
      },
      {
        "lon": "-122.5049299",
        "title": "Sloat Blvd & 47th Ave",
        "stopId": "17208",
        "tag": "7208",
        "lat": "37.7353899"
      },
      {
        "lon": "-122.5027799",
        "title": "Sloat Blvd & 45th Ave",
        "stopId": "16451",
        "tag": "6451",
        "lat": "37.73537"
      },
      {
        "lon": "-122.5007499",
        "title": "Sloat Blvd & 43rd Ave",
        "stopId": "16449",
        "tag": "6449",
        "lat": "37.73501"
      },
      {
        "lon": "-122.4989599",
        "title": "Sloat Blvd & 41st Ave",
        "stopId": "16447",
        "tag": "6447",
        "lat": "37.7341299"
      },
      {
        "lon": "-122.4968199",
        "title": "Sloat Blvd & Skyline Blvd",
        "stopId": "16461",
        "tag": "6461",
        "lat": "37.7337"
      },
      {
        "lon": "-122.4946",
        "title": "Sloat Blvd & 37th Ave",
        "stopId": "16444",
        "tag": "6444",
        "lat": "37.7337299"
      },
      {
        "lon": "-122.4934499",
        "title": "Sloat Blvd & 36th Ave",
        "stopId": "16443",
        "tag": "6443",
        "lat": "37.73378"
      },
      {
        "lon": "-122.4915899",
        "title": "Sloat Blvd & Clearfield Dr",
        "stopId": "16454",
        "tag": "6454",
        "lat": "37.73385"
      },
      {
        "lon": "-122.48968",
        "title": "Sloat Blvd & Everglade Dr",
        "stopId": "16458",
        "tag": "6458",
        "lat": "37.7339599"
      },
      {
        "lon": "-122.48583",
        "title": "Sloat Blvd & Sylvan Dr",
        "stopId": "16462",
        "tag": "6462",
        "lat": "37.7341299"
      },
      {
        "lon": "-122.48394",
        "title": "Sloat Blvd & Forest View Dr",
        "stopId": "16459",
        "tag": "6459",
        "lat": "37.7342199"
      },
      {
        "lon": "-122.48218",
        "title": "Sloat Blvd & 26th Ave",
        "stopId": "16440",
        "tag": "6440",
        "lat": "37.7342899"
      },
      {
        "lon": "-122.47962",
        "title": "Sloat Blvd & 23rd Ave",
        "stopId": "16439",
        "tag": "6439",
        "lat": "37.7343999"
      },
      {
        "lon": "-122.4772399",
        "title": "Sloat Blvd & 21st Ave",
        "stopId": "16438",
        "tag": "6438",
        "lat": "37.73449"
      },
      {
        "lon": "-122.4752699",
        "title": "Sloat Blvd & 19th Ave",
        "stopId": "16436",
        "tag": "6436",
        "lat": "37.73449"
      },
      {
        "lon": "-122.47188",
        "title": "Sloat Blvd & West Portal Ave",
        "stopId": "16465",
        "tag": "6465",
        "lat": "37.7345799"
      },
      {
        "lon": "-122.4697999",
        "title": "Saint Francis & San Fernando",
        "stopId": "16508",
        "tag": "6508",
        "lat": "37.73471"
      },
      {
        "lon": "-122.4680699",
        "title": "Saint Francis & Santa Ana",
        "stopId": "16506",
        "tag": "6506",
        "lat": "37.73479"
      },
      {
        "lon": "-122.4663599",
        "title": "Saint Francis & Santa Clara",
        "stopId": "16504",
        "tag": "6504",
        "lat": "37.73486"
      },
      {
        "lon": "-122.4657999",
        "title": "Santa Clara Ave & Monterey",
        "stopId": "16374",
        "tag": "6374",
        "lat": "37.7331999"
      },
      {
        "lon": "-122.4645499",
        "title": "Monterey Blvd & San Aleso Ave",
        "stopId": "15442",
        "tag": "5442",
        "lat": "37.7322799"
      },
      {
        "lon": "-122.4618599",
        "title": "Monterey Blvd & Northgate Dr",
        "stopId": "15436",
        "tag": "5436",
        "lat": "37.72997"
      },
      {
        "lon": "-122.45908",
        "title": "Monterey Blvd & Faxon Ave",
        "stopId": "15431",
        "tag": "5431",
        "lat": "37.7307"
      },
      {
        "lon": "-122.4576499",
        "title": "Monterey Blvd & Plymouth Ave",
        "stopId": "15438",
        "tag": "5438",
        "lat": "37.73087"
      },
      {
        "lon": "-122.45583",
        "title": "Monterey Blvd & Valdez Ave",
        "stopId": "15445",
        "tag": "5445",
        "lat": "37.7312699"
      },
      {
        "lon": "-122.4530799",
        "title": "Monterey Blvd & Ridgewood Ave",
        "stopId": "15440",
        "tag": "5440",
        "lat": "37.73147"
      },
      {
        "lon": "-122.45124",
        "title": "Monterey Blvd & Gennessee St",
        "stopId": "15434",
        "tag": "5434",
        "lat": "37.7314699"
      },
      {
        "lon": "-122.4485399",
        "title": "Monterey Blvd & Foerster St",
        "stopId": "15433",
        "tag": "5433",
        "lat": "37.73148"
      },
      {
        "lon": "-122.44669",
        "title": "Monterey Blvd & Edna St",
        "stopId": "15429",
        "tag": "5429",
        "lat": "37.73148"
      },
      {
        "lon": "-122.4439799",
        "title": "Monterey Blvd & Detroit St",
        "stopId": "15427",
        "tag": "5427",
        "lat": "37.73151"
      },
      {
        "lon": "-122.4421299",
        "title": "Monterey Blvd & Congo St",
        "stopId": "15425",
        "tag": "5425",
        "lat": "37.73151"
      },
      {
        "lon": "-122.43985",
        "title": "Monterey Blvd & Baden St",
        "stopId": "15423",
        "tag": "5423",
        "lat": "37.7315199"
      },
      {
        "lon": "-122.43415",
        "title": "Diamond St & Bosworth St",
        "stopId": "14386",
        "tag": "4386",
        "lat": "37.7335099"
      },
      {
        "lon": "-122.4295199",
        "title": "Bosworth St & Milton St",
        "stopId": "13702",
        "tag": "3702",
        "lat": "37.73332"
      },
      {
        "lon": "-122.4279399",
        "title": "Bosworth St & Marsily St",
        "stopId": "13700",
        "tag": "3700",
        "lat": "37.73347"
      },
      {
        "lon": "-122.42592",
        "title": "Mission St & Murray St",
        "stopId": "15605",
        "tag": "5605",
        "lat": "37.7340399"
      },
      {
        "lon": "-122.4240599",
        "title": "Crescent Ave & College Ave",
        "stopId": "14192",
        "tag": "4192",
        "lat": "37.7352499"
      },
      {
        "lon": "-122.42182",
        "title": "Crescent Ave & Agnon Ave",
        "stopId": "14188",
        "tag": "4188",
        "lat": "37.73507"
      },
      {
        "lon": "-122.4197299",
        "title": "Crescent Ave & Arnold Ave",
        "stopId": "14191",
        "tag": "4191",
        "lat": "37.7349699"
      },
      {
        "lon": "-122.41821",
        "title": "Crescent Ave & Porter St",
        "stopId": "14200",
        "tag": "4200",
        "lat": "37.7349"
      },
      {
        "lon": "-122.41694",
        "title": "Crescent Ave & Andover St",
        "stopId": "14190",
        "tag": "4190",
        "lat": "37.73483"
      },
      {
        "lon": "-122.41505",
        "title": "Crescent Ave & Ellsworth St",
        "stopId": "17209",
        "tag": "7209",
        "lat": "37.73473"
      },
      {
        "lon": "-122.4138",
        "title": "Crescent Ave & Folsom St",
        "stopId": "14196",
        "tag": "4196",
        "lat": "37.73467"
      },
      {
        "lon": "-122.4112799",
        "title": "Crescent Ave & Putnam St",
        "stopId": "14202",
        "tag": "4202",
        "lat": "37.73491"
      },
      {
        "lon": "-122.40677",
        "title": "Bay Shore Blvd & Cortland Ave",
        "stopId": "13778",
        "tag": "3778",
        "lat": "37.7398599"
      },
      {
        "lon": "-122.4056099",
        "title": "Bay Shore Blvd & Flower St",
        "stopId": "17886",
        "tag": "7886",
        "lat": "37.74238"
      },
      {
        "lon": "-122.4033399",
        "title": "Oakdale Ave & Barneveld Ave",
        "stopId": "15774",
        "tag": "5774",
        "lat": "37.7418899"
      },
      {
        "lon": "-122.4009899",
        "title": "Toland St & Newcomb Ave",
        "stopId": "16689",
        "tag": "6689",
        "lat": "37.74149"
      },
      {
        "lon": "-122.3988099",
        "title": "Toland St & Jerrold Ave",
        "stopId": "16686",
        "tag": "6686",
        "lat": "37.7439"
      },
      {
        "lon": "-122.39694",
        "title": "Jerrold Ave & Selby St",
        "stopId": "15182",
        "tag": "5182",
        "lat": "37.74278"
      },
      {
        "lon": "-122.3946899",
        "title": "Jerrold Ave & Rankin St",
        "stopId": "15180",
        "tag": "5180",
        "lat": "37.7416999"
      },
      {
        "lon": "-122.39292",
        "title": "Jerrold Ave & Quint St",
        "stopId": "15178",
        "tag": "5178",
        "lat": "37.74069"
      },
      {
        "lon": "-122.39142",
        "title": "Jerrold Ave & Phelps St",
        "stopId": "15176",
        "tag": "5176",
        "lat": "37.73985"
      },
      {
        "lon": "-122.3929899",
        "title": "Phelps St & McKinnon Ave",
        "stopId": "15935",
        "tag": "5935",
        "lat": "37.73808"
      },
      {
        "lon": "-122.3941",
        "title": "Phelps St & Oakdale Ave",
        "stopId": "15937",
        "tag": "5937",
        "lat": "37.7368399"
      },
      {
        "lon": "-122.3946699",
        "title": "Phelps St & Palou Ave",
        "stopId": "15939",
        "tag": "5939",
        "lat": "37.73622"
      },
      {
        "lon": "-122.3929199",
        "title": "Palou Ave & Newhall St",
        "stopId": "15877",
        "tag": "5877",
        "lat": "37.7350299"
      },
      {
        "lon": "-122.39086",
        "title": "Palou Ave & 3rd St",
        "stopId": "15864",
        "tag": "5864",
        "lat": "37.7338499"
      },
      {
        "lon": "-122.3891799",
        "title": "Palou Ave & Lane St",
        "stopId": "15876",
        "tag": "5876",
        "lat": "37.7329099"
      },
      {
        "lon": "-122.38731",
        "title": "Palou Ave & Keith St",
        "stopId": "15874",
        "tag": "5874",
        "lat": "37.73185"
      },
      {
        "lon": "-122.38542",
        "title": "Palou Ave & Jennings St",
        "stopId": "15871",
        "tag": "5871",
        "lat": "37.73082"
      },
      {
        "lon": "-122.3835799",
        "title": "Palou Ave & Ingalls St",
        "stopId": "15869",
        "tag": "5869",
        "lat": "37.72973"
      },
      {
        "lon": "-122.38268",
        "title": "Oakdale Ave & Ingalls St",
        "stopId": "15777",
        "tag": "5777",
        "lat": "37.7301499"
      },
      {
        "lon": "-122.38137",
        "title": "Oakdale Ave & Baldwin Ct",
        "stopId": "15775",
        "tag": "5775",
        "lat": "37.72938"
      },
      {
        "lon": "-122.37932",
        "title": "Oakdale Ave & Griffith St",
        "stopId": "15776",
        "tag": "5776",
        "lat": "37.72822"
      },
      {
        "lon": "-122.38019",
        "title": "Palou Ave & Crisp Ave",
        "stopId": "15865",
        "tag": "5865",
        "lat": "37.72798"
      },
      {
        "lon": "-122.3814199",
        "title": "Palou Ave & Hawes St",
        "stopId": "15866",
        "tag": "5866",
        "lat": "37.7286799"
      },
      {
        "lon": "-122.3827299",
        "title": "Palou Ave & Ingalls St",
        "stopId": "15868",
        "tag": "5868",
        "lat": "37.7294199"
      },
      {
        "lon": "-122.3851499",
        "title": "Palou Ave & Jennings St",
        "stopId": "15870",
        "tag": "5870",
        "lat": "37.7307999"
      },
      {
        "lon": "-122.38705",
        "title": "Palou Ave & Keith St",
        "stopId": "15872",
        "tag": "5872",
        "lat": "37.73186"
      },
      {
        "lon": "-122.38889",
        "title": "Palou Ave & Lane St",
        "stopId": "15875",
        "tag": "5875",
        "lat": "37.73292"
      },
      {
        "lon": "-122.39082",
        "title": "Palou Ave & 3rd St",
        "stopId": "135863",
        "tag": "35863",
        "lat": "37.7340199"
      },
      {
        "lon": "-122.50535",
        "title": "Sloat Blvd & 47th Ave OB",
        "stopId": "116453",
        "tag": "16453",
        "lat": "37.7355299"
      }
    ],
    "title": "23-Monterey",
    "lonMin": "-122.50682",
    "color": "b07d00",
    "direction": [
      {
        "stop": [
          {
            "tag": "5863"
          },
          {
            "tag": "5878"
          },
          {
            "tag": "5879"
          },
          {
            "tag": "5938"
          },
          {
            "tag": "5936"
          },
          {
            "tag": "5934"
          },
          {
            "tag": "5177"
          },
          {
            "tag": "5179"
          },
          {
            "tag": "5181"
          },
          {
            "tag": "6687"
          },
          {
            "tag": "6688"
          },
          {
            "tag": "6690"
          },
          {
            "tag": "7032"
          },
          {
            "tag": "3779"
          },
          {
            "tag": "7313"
          },
          {
            "tag": "4201"
          },
          {
            "tag": "4195"
          },
          {
            "tag": "7689"
          },
          {
            "tag": "4189"
          },
          {
            "tag": "4203"
          },
          {
            "tag": "4199"
          },
          {
            "tag": "4197"
          },
          {
            "tag": "4198"
          },
          {
            "tag": "3703"
          },
          {
            "tag": "3701"
          },
          {
            "tag": "3704"
          },
          {
            "tag": "4387"
          },
          {
            "tag": "5420"
          },
          {
            "tag": "5422"
          },
          {
            "tag": "5424"
          },
          {
            "tag": "5426"
          },
          {
            "tag": "5428"
          },
          {
            "tag": "5432"
          },
          {
            "tag": "5435"
          },
          {
            "tag": "5439"
          },
          {
            "tag": "5444"
          },
          {
            "tag": "5437"
          },
          {
            "tag": "5441"
          },
          {
            "tag": "5430"
          },
          {
            "tag": "5443"
          },
          {
            "tag": "7425"
          },
          {
            "tag": "6375"
          },
          {
            "tag": "6505"
          },
          {
            "tag": "6507"
          },
          {
            "tag": "6464"
          },
          {
            "tag": "6435"
          },
          {
            "tag": "6437"
          },
          {
            "tag": "6456"
          },
          {
            "tag": "6460"
          },
          {
            "tag": "6463"
          },
          {
            "tag": "6457"
          },
          {
            "tag": "6455"
          },
          {
            "tag": "6441"
          },
          {
            "tag": "6442"
          },
          {
            "tag": "6445"
          },
          {
            "tag": "6446"
          },
          {
            "tag": "6448"
          },
          {
            "tag": "6450"
          },
          {
            "tag": "6453"
          },
          {
            "tag": "34782"
          }
        ],
        "title": "Outbound to S.F. Zoo",
        "useForUI": "true",
        "tag": "23___O_F10",
        "name": "Outbound"
      },
      {
        "stop": [
          {
            "tag": "16453"
          },
          {
            "tag": "4782"
          },
          {
            "tag": "7208"
          },
          {
            "tag": "6451"
          },
          {
            "tag": "6449"
          },
          {
            "tag": "6447"
          },
          {
            "tag": "6461"
          },
          {
            "tag": "6444"
          },
          {
            "tag": "6443"
          },
          {
            "tag": "6454"
          },
          {
            "tag": "6458"
          },
          {
            "tag": "6462"
          },
          {
            "tag": "6459"
          },
          {
            "tag": "6440"
          },
          {
            "tag": "6439"
          },
          {
            "tag": "6438"
          },
          {
            "tag": "6436"
          },
          {
            "tag": "6465"
          },
          {
            "tag": "6508"
          },
          {
            "tag": "6506"
          },
          {
            "tag": "6504"
          },
          {
            "tag": "6374"
          },
          {
            "tag": "5442"
          },
          {
            "tag": "5436"
          },
          {
            "tag": "5431"
          },
          {
            "tag": "5438"
          },
          {
            "tag": "5445"
          },
          {
            "tag": "5440"
          },
          {
            "tag": "5434"
          },
          {
            "tag": "5433"
          },
          {
            "tag": "5429"
          },
          {
            "tag": "5427"
          },
          {
            "tag": "5425"
          },
          {
            "tag": "5423"
          },
          {
            "tag": "4386"
          },
          {
            "tag": "3702"
          },
          {
            "tag": "3700"
          },
          {
            "tag": "5605"
          },
          {
            "tag": "4192"
          },
          {
            "tag": "4188"
          },
          {
            "tag": "4191"
          },
          {
            "tag": "4200"
          },
          {
            "tag": "4190"
          },
          {
            "tag": "7209"
          },
          {
            "tag": "4196"
          },
          {
            "tag": "4202"
          },
          {
            "tag": "3778"
          },
          {
            "tag": "7886"
          },
          {
            "tag": "5774"
          },
          {
            "tag": "6689"
          },
          {
            "tag": "6686"
          },
          {
            "tag": "5182"
          },
          {
            "tag": "5180"
          },
          {
            "tag": "5178"
          },
          {
            "tag": "5176"
          },
          {
            "tag": "5935"
          },
          {
            "tag": "5937"
          },
          {
            "tag": "5939"
          },
          {
            "tag": "5877"
          },
          {
            "tag": "5864"
          },
          {
            "tag": "5876"
          },
          {
            "tag": "5874"
          },
          {
            "tag": "5871"
          },
          {
            "tag": "5869"
          },
          {
            "tag": "5777"
          },
          {
            "tag": "5775"
          },
          {
            "tag": "5776"
          },
          {
            "tag": "5865"
          },
          {
            "tag": "5866"
          },
          {
            "tag": "5868"
          },
          {
            "tag": "5870"
          },
          {
            "tag": "5872"
          },
          {
            "tag": "5875"
          },
          {
            "tag": "35863"
          }
        ],
        "title": "Inbound to Bayview District",
        "useForUI": "true",
        "tag": "23___I_F00",
        "name": "Inbound"
      }
    ],
    "tag": "23",
    "path": [
      {
        "point": [
          {
            "lon": "-122.39086",
            "lat": "37.7338499"
          },
          {
            "lon": "-122.38918",
            "lat": "37.7329099"
          },
          {
            "lon": "-122.38344",
            "lat": "37.72974"
          },
          {
            "lon": "-122.3829",
            "lat": "37.73035"
          },
          {
            "lon": "-122.37919",
            "lat": "37.72824"
          },
          {
            "lon": "-122.37961",
            "lat": "37.72774"
          },
          {
            "lon": "-122.38",
            "lat": "37.72779"
          },
          {
            "lon": "-122.38731",
            "lat": "37.73185"
          },
          {
            "lon": "-122.38542",
            "lat": "37.73082"
          },
          {
            "lon": "-122.38358",
            "lat": "37.72973"
          },
          {
            "lon": "-122.38268",
            "lat": "37.73015"
          },
          {
            "lon": "-122.38137",
            "lat": "37.72938"
          },
          {
            "lon": "-122.37932",
            "lat": "37.72822"
          },
          {
            "lon": "-122.38019",
            "lat": "37.72798"
          },
          {
            "lon": "-122.38142",
            "lat": "37.72868"
          },
          {
            "lon": "-122.38273",
            "lat": "37.72942"
          },
          {
            "lon": "-122.38515",
            "lat": "37.7308"
          },
          {
            "lon": "-122.38705",
            "lat": "37.73186"
          },
          {
            "lon": "-122.38889",
            "lat": "37.73292"
          },
          {
            "lon": "-122.39082",
            "lat": "37.73402"
          }
        ]
      },
      {
        "point": [
          {
            "lon": "-122.40712",
            "lat": "37.73946"
          },
          {
            "lon": "-122.40731",
            "lat": "37.73837"
          },
          {
            "lon": "-122.40728",
            "lat": "37.73805"
          },
          {
            "lon": "-122.40767",
            "lat": "37.73782"
          },
          {
            "lon": "-122.40814",
            "lat": "37.73766"
          },
          {
            "lon": "-122.40848",
            "lat": "37.73749"
          },
          {
            "lon": "-122.4087",
            "lat": "37.73724"
          },
          {
            "lon": "-122.40923",
            "lat": "37.73603"
          },
          {
            "lon": "-122.40954",
            "lat": "37.73566"
          },
          {
            "lon": "-122.41075",
            "lat": "37.73486"
          },
          {
            "lon": "-122.41117",
            "lat": "37.73501"
          },
          {
            "lon": "-122.41118",
            "lat": "37.73508"
          },
          {
            "lon": "-122.41184",
            "lat": "37.73464"
          },
          {
            "lon": "-122.41359",
            "lat": "37.7348"
          },
          {
            "lon": "-122.41568",
            "lat": "37.73489"
          },
          {
            "lon": "-122.41672",
            "lat": "37.7349699"
          },
          {
            "lon": "-122.41863",
            "lat": "37.73506"
          },
          {
            "lon": "-122.42013",
            "lat": "37.73514"
          },
          {
            "lon": "-122.42257",
            "lat": "37.73524"
          },
          {
            "lon": "-122.42446",
            "lat": "37.73542"
          },
          {
            "lon": "-122.42471",
            "lat": "37.73537"
          },
          {
            "lon": "-122.4264",
            "lat": "37.73368"
          },
          {
            "lon": "-122.4267",
            "lat": "37.73372"
          }
        ]
      },
      {
        "point": [
          {
            "lon": "-122.39086",
            "lat": "37.7338499"
          },
          {
            "lon": "-122.38918",
            "lat": "37.7329099"
          },
          {
            "lon": "-122.38731",
            "lat": "37.73185"
          },
          {
            "lon": "-122.38542",
            "lat": "37.73082"
          },
          {
            "lon": "-122.38344",
            "lat": "37.72974"
          },
          {
            "lon": "-122.3829",
            "lat": "37.73035"
          },
          {
            "lon": "-122.37919",
            "lat": "37.72824"
          },
          {
            "lon": "-122.37961",
            "lat": "37.72774"
          },
          {
            "lon": "-122.38",
            "lat": "37.72779"
          },
          {
            "lon": "-122.38358",
            "lat": "37.72973"
          },
          {
            "lon": "-122.38268",
            "lat": "37.73015"
          },
          {
            "lon": "-122.38137",
            "lat": "37.72938"
          },
          {
            "lon": "-122.37932",
            "lat": "37.72822"
          },
          {
            "lon": "-122.38019",
            "lat": "37.72798"
          },
          {
            "lon": "-122.38142",
            "lat": "37.72868"
          },
          {
            "lon": "-122.38273",
            "lat": "37.72942"
          },
          {
            "lon": "-122.38515",
            "lat": "37.7308"
          },
          {
            "lon": "-122.38705",
            "lat": "37.73186"
          },
          {
            "lon": "-122.38889",
            "lat": "37.73292"
          },
          {
            "lon": "-122.39082",
            "lat": "37.73402"
          }
        ]
      },
      {
        "point": [
          {
            "lon": "-122.40677",
            "lat": "37.73986"
          },
          {
            "lon": "-122.40671",
            "lat": "37.74081"
          },
          {
            "lon": "-122.40561",
            "lat": "37.74238"
          },
          {
            "lon": "-122.40525",
            "lat": "37.74292"
          },
          {
            "lon": "-122.40484",
            "lat": "37.74282"
          },
          {
            "lon": "-122.40334",
            "lat": "37.74189"
          },
          {
            "lon": "-122.40157",
            "lat": "37.74097"
          },
          {
            "lon": "-122.40099",
            "lat": "37.74149"
          },
          {
            "lon": "-122.39881",
            "lat": "37.7438999"
          },
          {
            "lon": "-122.39876",
            "lat": "37.7441"
          },
          {
            "lon": "-122.39853",
            "lat": "37.74386"
          },
          {
            "lon": "-122.39701",
            "lat": "37.7429"
          },
          {
            "lon": "-122.39694",
            "lat": "37.74278"
          },
          {
            "lon": "-122.39541",
            "lat": "37.74204"
          },
          {
            "lon": "-122.39506",
            "lat": "37.74194"
          },
          {
            "lon": "-122.39469",
            "lat": "37.7417"
          },
          {
            "lon": "-122.39313",
            "lat": "37.74091"
          },
          {
            "lon": "-122.39292",
            "lat": "37.74069"
          },
          {
            "lon": "-122.39142",
            "lat": "37.7398499"
          },
          {
            "lon": "-122.39128",
            "lat": "37.73986"
          },
          {
            "lon": "-122.39299",
            "lat": "37.7380799"
          },
          {
            "lon": "-122.3941",
            "lat": "37.73684"
          },
          {
            "lon": "-122.39467",
            "lat": "37.73622"
          },
          {
            "lon": "-122.39467",
            "lat": "37.7361099"
          },
          {
            "lon": "-122.39292",
            "lat": "37.73503"
          },
          {
            "lon": "-122.39086",
            "lat": "37.7338499"
          }
        ]
      },
      {
        "point": [
          {
            "lon": "-122.50682",
            "lat": "37.73548"
          },
          {
            "lon": "-122.50493",
            "lat": "37.73539"
          },
          {
            "lon": "-122.50278",
            "lat": "37.73537"
          },
          {
            "lon": "-122.50203",
            "lat": "37.7354"
          },
          {
            "lon": "-122.50111",
            "lat": "37.73521"
          },
          {
            "lon": "-122.50075",
            "lat": "37.73501"
          },
          {
            "lon": "-122.50058",
            "lat": "37.73503"
          },
          {
            "lon": "-122.49944",
            "lat": "37.73448"
          },
          {
            "lon": "-122.49921",
            "lat": "37.7343199"
          },
          {
            "lon": "-122.49896",
            "lat": "37.73413"
          },
          {
            "lon": "-122.4977",
            "lat": "37.73387"
          },
          {
            "lon": "-122.49683",
            "lat": "37.73378"
          },
          {
            "lon": "-122.49682",
            "lat": "37.7337"
          },
          {
            "lon": "-122.49647",
            "lat": "37.7337"
          },
          {
            "lon": "-122.4946",
            "lat": "37.73373"
          },
          {
            "lon": "-122.49345",
            "lat": "37.73378"
          },
          {
            "lon": "-122.49159",
            "lat": "37.7338499"
          },
          {
            "lon": "-122.48968",
            "lat": "37.73396"
          },
          {
            "lon": "-122.48583",
            "lat": "37.73413"
          },
          {
            "lon": "-122.48394",
            "lat": "37.73422"
          },
          {
            "lon": "-122.48218",
            "lat": "37.73429"
          },
          {
            "lon": "-122.47962",
            "lat": "37.7344"
          },
          {
            "lon": "-122.47724",
            "lat": "37.73449"
          },
          {
            "lon": "-122.47527",
            "lat": "37.73449"
          },
          {
            "lon": "-122.47188",
            "lat": "37.73458"
          }
        ]
      },
      {
        "point": [
          {
            "lon": "-122.50535",
            "lat": "37.73553"
          },
          {
            "lon": "-122.50682",
            "lat": "37.73548"
          }
        ]
      },
      {
        "point": [
          {
            "lon": "-122.43415",
            "lat": "37.73351"
          },
          {
            "lon": "-122.43416",
            "lat": "37.73356"
          },
          {
            "lon": "-122.43246",
            "lat": "37.7331999"
          },
          {
            "lon": "-122.4321",
            "lat": "37.73299"
          },
          {
            "lon": "-122.43172",
            "lat": "37.73302"
          },
          {
            "lon": "-122.43086",
            "lat": "37.73327"
          },
          {
            "lon": "-122.42952",
            "lat": "37.73332"
          },
          {
            "lon": "-122.42794",
            "lat": "37.7334699"
          },
          {
            "lon": "-122.4264",
            "lat": "37.73368"
          },
          {
            "lon": "-122.42592",
            "lat": "37.73404"
          }
        ]
      },
      {
        "point": [
          {
            "lon": "-122.47188",
            "lat": "37.73458"
          },
          {
            "lon": "-122.47158",
            "lat": "37.73471"
          },
          {
            "lon": "-122.47116",
            "lat": "37.73466"
          },
          {
            "lon": "-122.47052",
            "lat": "37.73475"
          },
          {
            "lon": "-122.4698",
            "lat": "37.73471"
          },
          {
            "lon": "-122.46807",
            "lat": "37.7347899"
          },
          {
            "lon": "-122.46636",
            "lat": "37.73486"
          },
          {
            "lon": "-122.46626",
            "lat": "37.73494"
          },
          {
            "lon": "-122.46621",
            "lat": "37.73412"
          },
          {
            "lon": "-122.46613",
            "lat": "37.7338499"
          },
          {
            "lon": "-122.46598",
            "lat": "37.73356"
          },
          {
            "lon": "-122.4658",
            "lat": "37.7331999"
          },
          {
            "lon": "-122.46567",
            "lat": "37.73316"
          },
          {
            "lon": "-122.46471",
            "lat": "37.73248"
          },
          {
            "lon": "-122.46455",
            "lat": "37.73228"
          },
          {
            "lon": "-122.46412",
            "lat": "37.73206"
          },
          {
            "lon": "-122.46372",
            "lat": "37.73165"
          },
          {
            "lon": "-122.46343",
            "lat": "37.73089"
          },
          {
            "lon": "-122.46238",
            "lat": "37.7302"
          },
          {
            "lon": "-122.46207",
            "lat": "37.7300899"
          },
          {
            "lon": "-122.46186",
            "lat": "37.72997"
          },
          {
            "lon": "-122.46175",
            "lat": "37.73003"
          },
          {
            "lon": "-122.46133",
            "lat": "37.73001"
          },
          {
            "lon": "-122.4609",
            "lat": "37.73016"
          },
          {
            "lon": "-122.46059",
            "lat": "37.73044"
          },
          {
            "lon": "-122.45978",
            "lat": "37.73071"
          },
          {
            "lon": "-122.4595",
            "lat": "37.73075"
          },
          {
            "lon": "-122.45908",
            "lat": "37.7307"
          },
          {
            "lon": "-122.45823",
            "lat": "37.73078"
          },
          {
            "lon": "-122.45765",
            "lat": "37.73087"
          },
          {
            "lon": "-122.45583",
            "lat": "37.73127"
          },
          {
            "lon": "-122.45493",
            "lat": "37.73147"
          },
          {
            "lon": "-122.4536",
            "lat": "37.73149"
          },
          {
            "lon": "-122.45308",
            "lat": "37.73147"
          },
          {
            "lon": "-122.45124",
            "lat": "37.73147"
          }
        ]
      },
      {
        "point": [
          {
            "lon": "-122.42592",
            "lat": "37.73404"
          },
          {
            "lon": "-122.42471",
            "lat": "37.73537"
          },
          {
            "lon": "-122.42406",
            "lat": "37.73525"
          },
          {
            "lon": "-122.4227",
            "lat": "37.73521"
          },
          {
            "lon": "-122.42182",
            "lat": "37.73507"
          },
          {
            "lon": "-122.41973",
            "lat": "37.7349699"
          },
          {
            "lon": "-122.41821",
            "lat": "37.7349"
          },
          {
            "lon": "-122.41694",
            "lat": "37.73483"
          },
          {
            "lon": "-122.41505",
            "lat": "37.73473"
          },
          {
            "lon": "-122.4138",
            "lat": "37.73467"
          },
          {
            "lon": "-122.41184",
            "lat": "37.73464"
          },
          {
            "lon": "-122.41128",
            "lat": "37.73491"
          },
          {
            "lon": "-122.41118",
            "lat": "37.73508"
          },
          {
            "lon": "-122.41084",
            "lat": "37.73474"
          },
          {
            "lon": "-122.40964",
            "lat": "37.73543"
          },
          {
            "lon": "-122.40916",
            "lat": "37.73565"
          },
          {
            "lon": "-122.40888",
            "lat": "37.73574"
          },
          {
            "lon": "-122.40789",
            "lat": "37.7359099"
          },
          {
            "lon": "-122.40745",
            "lat": "37.73603"
          },
          {
            "lon": "-122.40714",
            "lat": "37.73632"
          },
          {
            "lon": "-122.40702",
            "lat": "37.73653"
          },
          {
            "lon": "-122.40697",
            "lat": "37.7367599"
          },
          {
            "lon": "-122.40702",
            "lat": "37.7371"
          },
          {
            "lon": "-122.40716",
            "lat": "37.73737"
          },
          {
            "lon": "-122.40726",
            "lat": "37.73775"
          },
          {
            "lon": "-122.40692",
            "lat": "37.73797"
          },
          {
            "lon": "-122.40696",
            "lat": "37.7387"
          },
          {
            "lon": "-122.40677",
            "lat": "37.73986"
          }
        ]
      },
      {
        "point": [
          {
            "lon": "-122.45144",
            "lat": "37.73162"
          },
          {
            "lon": "-122.45329",
            "lat": "37.73162"
          },
          {
            "lon": "-122.45493",
            "lat": "37.73147"
          },
          {
            "lon": "-122.45565",
            "lat": "37.73145"
          },
          {
            "lon": "-122.45732",
            "lat": "37.73112"
          },
          {
            "lon": "-122.45823",
            "lat": "37.73078"
          },
          {
            "lon": "-122.45926",
            "lat": "37.73078"
          },
          {
            "lon": "-122.45978",
            "lat": "37.73071"
          },
          {
            "lon": "-122.46008",
            "lat": "37.73062"
          },
          {
            "lon": "-122.46043",
            "lat": "37.73055"
          },
          {
            "lon": "-122.4609",
            "lat": "37.73016"
          },
          {
            "lon": "-122.46133",
            "lat": "37.73001"
          },
          {
            "lon": "-122.4615",
            "lat": "37.73008"
          },
          {
            "lon": "-122.46175",
            "lat": "37.73003"
          },
          {
            "lon": "-122.46207",
            "lat": "37.7300899"
          },
          {
            "lon": "-122.46238",
            "lat": "37.7302"
          },
          {
            "lon": "-122.46327",
            "lat": "37.73073"
          },
          {
            "lon": "-122.46372",
            "lat": "37.73165"
          },
          {
            "lon": "-122.46396",
            "lat": "37.73203"
          },
          {
            "lon": "-122.46412",
            "lat": "37.73206"
          },
          {
            "lon": "-122.4655",
            "lat": "37.73315"
          },
          {
            "lon": "-122.46567",
            "lat": "37.73316"
          },
          {
            "lon": "-122.46598",
            "lat": "37.73356"
          },
          {
            "lon": "-122.46613",
            "lat": "37.7338499"
          },
          {
            "lon": "-122.46621",
            "lat": "37.73412"
          },
          {
            "lon": "-122.46615",
            "lat": "37.73486"
          },
          {
            "lon": "-122.46626",
            "lat": "37.73494"
          },
          {
            "lon": "-122.46785",
            "lat": "37.73494"
          },
          {
            "lon": "-122.46958",
            "lat": "37.73486"
          },
          {
            "lon": "-122.47052",
            "lat": "37.73475"
          },
          {
            "lon": "-122.47127",
            "lat": "37.7348"
          },
          {
            "lon": "-122.47158",
            "lat": "37.73471"
          },
          {
            "lon": "-122.47187",
            "lat": "37.73478"
          }
        ]
      },
      {
        "point": [
          {
            "lon": "-122.39082",
            "lat": "37.73402"
          },
          {
            "lon": "-122.39266",
            "lat": "37.73503"
          },
          {
            "lon": "-122.39453",
            "lat": "37.7361"
          },
          {
            "lon": "-122.39467",
            "lat": "37.7361099"
          },
          {
            "lon": "-122.39409",
            "lat": "37.73664"
          },
          {
            "lon": "-122.39296",
            "lat": "37.73787"
          },
          {
            "lon": "-122.39127",
            "lat": "37.7397599"
          },
          {
            "lon": "-122.39128",
            "lat": "37.73986"
          },
          {
            "lon": "-122.39297",
            "lat": "37.7409"
          },
          {
            "lon": "-122.39484",
            "lat": "37.74188"
          },
          {
            "lon": "-122.39493",
            "lat": "37.74209"
          },
          {
            "lon": "-122.39508",
            "lat": "37.7421099"
          },
          {
            "lon": "-122.39612",
            "lat": "37.74277"
          },
          {
            "lon": "-122.39637",
            "lat": "37.74297"
          },
          {
            "lon": "-122.39679",
            "lat": "37.7433"
          },
          {
            "lon": "-122.39824",
            "lat": "37.74395"
          },
          {
            "lon": "-122.39876",
            "lat": "37.7441"
          },
          {
            "lon": "-122.39901",
            "lat": "37.74394"
          },
          {
            "lon": "-122.40044",
            "lat": "37.74231"
          },
          {
            "lon": "-122.40156",
            "lat": "37.74107"
          },
          {
            "lon": "-122.40157",
            "lat": "37.74097"
          },
          {
            "lon": "-122.4032",
            "lat": "37.74189"
          },
          {
            "lon": "-122.40416",
            "lat": "37.74253"
          },
          {
            "lon": "-122.40525",
            "lat": "37.74306"
          },
          {
            "lon": "-122.40585",
            "lat": "37.7424"
          },
          {
            "lon": "-122.40693",
            "lat": "37.74077"
          },
          {
            "lon": "-122.40712",
            "lat": "37.73946"
          }
        ]
      },
      {
        "point": [
          {
            "lon": "-122.45124",
            "lat": "37.73147"
          },
          {
            "lon": "-122.44854",
            "lat": "37.73148"
          },
          {
            "lon": "-122.44669",
            "lat": "37.73148"
          },
          {
            "lon": "-122.44398",
            "lat": "37.73151"
          },
          {
            "lon": "-122.44213",
            "lat": "37.73151"
          },
          {
            "lon": "-122.43985",
            "lat": "37.73152"
          },
          {
            "lon": "-122.43747",
            "lat": "37.73159"
          },
          {
            "lon": "-122.43709",
            "lat": "37.73154"
          },
          {
            "lon": "-122.43669",
            "lat": "37.73154"
          },
          {
            "lon": "-122.43445",
            "lat": "37.73254"
          },
          {
            "lon": "-122.43415",
            "lat": "37.73351"
          }
        ]
      },
      {
        "point": [
          {
            "lon": "-122.47187",
            "lat": "37.73478"
          },
          {
            "lon": "-122.47449",
            "lat": "37.73478"
          },
          {
            "lon": "-122.47738",
            "lat": "37.73475"
          },
          {
            "lon": "-122.48006",
            "lat": "37.73465"
          },
          {
            "lon": "-122.48224",
            "lat": "37.73456"
          },
          {
            "lon": "-122.48395",
            "lat": "37.73448"
          },
          {
            "lon": "-122.48623",
            "lat": "37.73438"
          },
          {
            "lon": "-122.48926",
            "lat": "37.73424"
          },
          {
            "lon": "-122.49135",
            "lat": "37.73401"
          },
          {
            "lon": "-122.49161",
            "lat": "37.7341399"
          },
          {
            "lon": "-122.49227",
            "lat": "37.73406"
          },
          {
            "lon": "-122.49365",
            "lat": "37.73404"
          },
          {
            "lon": "-122.49646",
            "lat": "37.73388"
          },
          {
            "lon": "-122.49677",
            "lat": "37.73391"
          },
          {
            "lon": "-122.49683",
            "lat": "37.73378"
          },
          {
            "lon": "-122.49844",
            "lat": "37.73404"
          },
          {
            "lon": "-122.49921",
            "lat": "37.7343199"
          },
          {
            "lon": "-122.49929",
            "lat": "37.73457"
          },
          {
            "lon": "-122.49944",
            "lat": "37.73448"
          },
          {
            "lon": "-122.5009",
            "lat": "37.73516"
          },
          {
            "lon": "-122.50134",
            "lat": "37.73539"
          },
          {
            "lon": "-122.50203",
            "lat": "37.7354"
          },
          {
            "lon": "-122.50341",
            "lat": "37.7356"
          },
          {
            "lon": "-122.50535",
            "lat": "37.73553"
          }
        ]
      },
      {
        "point": [
          {
            "lon": "-122.50535",
            "lat": "37.73553"
          },
          {
            "lon": "-122.50673",
            "lat": "37.73547"
          },
          {
            "lon": "-122.50682",
            "lat": "37.73548"
          }
        ]
      },
      {
        "point": [
          {
            "lon": "-122.43422",
            "lat": "37.73345"
          },
          {
            "lon": "-122.43445",
            "lat": "37.73254"
          },
          {
            "lon": "-122.43669",
            "lat": "37.73154"
          },
          {
            "lon": "-122.43709",
            "lat": "37.73154"
          },
          {
            "lon": "-122.43747",
            "lat": "37.73159"
          },
          {
            "lon": "-122.43777",
            "lat": "37.73167"
          },
          {
            "lon": "-122.43963",
            "lat": "37.73167"
          },
          {
            "lon": "-122.44191",
            "lat": "37.73166"
          },
          {
            "lon": "-122.44461",
            "lat": "37.73164"
          },
          {
            "lon": "-122.44647",
            "lat": "37.73163"
          },
          {
            "lon": "-122.44917",
            "lat": "37.73162"
          },
          {
            "lon": "-122.45144",
            "lat": "37.73162"
          }
        ]
      },
      {
        "point": [
          {
            "lon": "-122.4267",
            "lat": "37.73372"
          },
          {
            "lon": "-122.42771",
            "lat": "37.73356"
          },
          {
            "lon": "-122.42933",
            "lat": "37.73349"
          },
          {
            "lon": "-122.43086",
            "lat": "37.73327"
          },
          {
            "lon": "-122.4313",
            "lat": "37.73321"
          },
          {
            "lon": "-122.43172",
            "lat": "37.73302"
          },
          {
            "lon": "-122.4321",
            "lat": "37.73299"
          },
          {
            "lon": "-122.43246",
            "lat": "37.7331999"
          },
          {
            "lon": "-122.43281",
            "lat": "37.73335"
          },
          {
            "lon": "-122.43416",
            "lat": "37.73356"
          },
          {
            "lon": "-122.43422",
            "lat": "37.73345"
          }
        ]
      }
    ],
    "lonMax": "-122.37932",
    "oppositeColor": "000000",
    "latMin": "37.72798"
  },
  "copyright": "All data copyright San Francisco Muni 2017."
}