{
  "route": {
    "latMax": "37.7711599",
    "stop": [
      {
        "lon": "-122.41983",
        "title": "16th St & Mission St",
        "stopId": "13293",
        "tag": "3293",
        "lat": "37.7649799"
      },
      {
        "lon": "-122.41605",
        "title": "16th St & Shotwell St",
        "stopId": "13299",
        "tag": "3299",
        "lat": "37.7652199"
      },
      {
        "lon": "-122.4132899",
        "title": "16th St & Harrison St",
        "stopId": "13289",
        "tag": "3289",
        "lat": "37.76538"
      },
      {
        "lon": "-122.41041",
        "title": "16th St & Bryant St",
        "stopId": "13282",
        "tag": "3282",
        "lat": "37.7655999"
      },
      {
        "lon": "-122.40761",
        "title": "16th St & Potrero Ave",
        "stopId": "13296",
        "tag": "3296",
        "lat": "37.7657599"
      },
      {
        "lon": "-122.40551",
        "title": "16th St & San Bruno Ave",
        "stopId": "13297",
        "tag": "3297",
        "lat": "37.7658599"
      },
      {
        "lon": "-122.40259",
        "title": "16th St & Rhode Island St",
        "stopId": "17761",
        "tag": "7761",
        "lat": "37.7660099"
      },
      {
        "lon": "-122.3996799",
        "title": "16th St & Wisconsin St",
        "stopId": "17762",
        "tag": "7762",
        "lat": "37.76623"
      },
      {
        "lon": "-122.3967799",
        "title": "16th St & Missouri St",
        "stopId": "17763",
        "tag": "7763",
        "lat": "37.7664"
      },
      {
        "lon": "-122.3925299",
        "title": "16th St & Owen St Sf/Fs-Bz",
        "stopId": "17866",
        "tag": "7866",
        "lat": "37.76665"
      },
      {
        "lon": "-122.3907199",
        "title": "16th St & 4th St",
        "stopId": "17764",
        "tag": "7764",
        "lat": "37.76677"
      },
      {
        "lon": "-122.3892999",
        "title": "3rd St & Gene Friend Wy",
        "stopId": "17321",
        "tag": "7321",
        "lat": "37.7695599"
      },
      {
        "lon": "-122.3896199",
        "title": "Mission Bay North & 3rd St",
        "stopId": "17765",
        "tag": "7765",
        "lat": "37.7711599"
      },
      {
        "lon": "-122.39104",
        "title": "Mission Bay South & 4th St",
        "stopId": "137766",
        "tag": "37766",
        "lat": "37.7705099"
      },
      {
        "lon": "-122.39104",
        "title": "Mission Bay South & 4th St",
        "stopId": "17766",
        "tag": "7766",
        "lat": "37.7705099"
      },
      {
        "lon": "-122.3894399",
        "title": "3rd St & Gene Friend Way",
        "stopId": "17324",
        "tag": "7324",
        "lat": "37.7693199"
      },
      {
        "lon": "-122.3908899",
        "title": "16th Street & 4th Street",
        "stopId": "17767",
        "tag": "7767",
        "lat": "37.76686"
      },
      {
        "lon": "-122.3927999",
        "title": "16th Street & Owen St",
        "stopId": "17865",
        "tag": "7865",
        "lat": "37.76672"
      },
      {
        "lon": "-122.3970099",
        "title": "16th Street & Missouri St",
        "stopId": "17768",
        "tag": "7768",
        "lat": "37.76649"
      },
      {
        "lon": "-122.3998399",
        "title": "16th Street & Wisconsin St",
        "stopId": "17769",
        "tag": "7769",
        "lat": "37.76629"
      },
      {
        "lon": "-122.4026299",
        "title": "16th Street & Rhode Islandi St",
        "stopId": "17770",
        "tag": "7770",
        "lat": "37.76612"
      },
      {
        "lon": "-122.4046899",
        "title": "16th St & Vermont St",
        "stopId": "13302",
        "tag": "3302",
        "lat": "37.76604"
      },
      {
        "lon": "-122.40762",
        "title": "16th St & Potrero Ave",
        "stopId": "13295",
        "tag": "3295",
        "lat": "37.7657999"
      },
      {
        "lon": "-122.41029",
        "title": "16th St & Bryant St",
        "stopId": "13281",
        "tag": "3281",
        "lat": "37.7656599"
      },
      {
        "lon": "-122.4129799",
        "title": "16th St & Harrison St",
        "stopId": "13288",
        "tag": "3288",
        "lat": "37.76552"
      },
      {
        "lon": "-122.4154299",
        "title": "16th St & Folsom St",
        "stopId": "17289",
        "tag": "7289",
        "lat": "37.7654"
      },
      {
        "lon": "-122.4196",
        "title": "16th St & Mission St",
        "stopId": "13291",
        "tag": "3291",
        "lat": "37.7651399"
      },
      {
        "lon": "-122.41983",
        "title": "16th St & Mission St",
        "stopId": "133293",
        "tag": "33293",
        "lat": "37.7649799"
      }
    ],
    "title": "55-16th Street",
    "lonMin": "-122.41983",
    "color": "cc0033",
    "direction": [
      {
        "stop": [
          {
            "tag": "7766"
          },
          {
            "tag": "7324"
          },
          {
            "tag": "7767"
          },
          {
            "tag": "7865"
          },
          {
            "tag": "7768"
          },
          {
            "tag": "7769"
          },
          {
            "tag": "7770"
          },
          {
            "tag": "3302"
          },
          {
            "tag": "3295"
          },
          {
            "tag": "3281"
          },
          {
            "tag": "3288"
          },
          {
            "tag": "7289"
          },
          {
            "tag": "3291"
          },
          {
            "tag": "33293"
          }
        ],
        "title": "Inbound to Mission Street / BART",
        "useForUI": "true",
        "tag": "55___I_F00",
        "name": "Inbound"
      },
      {
        "stop": [
          {
            "tag": "3293"
          },
          {
            "tag": "3299"
          },
          {
            "tag": "3289"
          },
          {
            "tag": "3282"
          },
          {
            "tag": "3296"
          },
          {
            "tag": "3297"
          },
          {
            "tag": "7761"
          },
          {
            "tag": "7762"
          },
          {
            "tag": "7763"
          },
          {
            "tag": "7866"
          },
          {
            "tag": "7764"
          },
          {
            "tag": "7321"
          },
          {
            "tag": "7765"
          },
          {
            "tag": "37766"
          }
        ],
        "title": "Outbound to UCSF Mission Bay",
        "useForUI": "true",
        "tag": "55___O_F01",
        "name": "Outbound"
      }
    ],
    "tag": "55",
    "path": [
      {
        "point": [
          {
            "lon": "-122.41029",
            "lat": "37.7656599"
          },
          {
            "lon": "-122.41298",
            "lat": "37.76552"
          },
          {
            "lon": "-122.41543",
            "lat": "37.7654"
          },
          {
            "lon": "-122.41968",
            "lat": "37.76506"
          },
          {
            "lon": "-122.4196",
            "lat": "37.76514"
          },
          {
            "lon": "-122.41984",
            "lat": "37.76668"
          },
          {
            "lon": "-122.42206",
            "lat": "37.76654"
          },
          {
            "lon": "-122.4219",
            "lat": "37.7649199"
          },
          {
            "lon": "-122.41983",
            "lat": "37.76498"
          }
        ]
      },
      {
        "point": [
          {
            "lon": "-122.41041",
            "lat": "37.7656"
          },
          {
            "lon": "-122.40761",
            "lat": "37.76576"
          },
          {
            "lon": "-122.40551",
            "lat": "37.76586"
          },
          {
            "lon": "-122.40259",
            "lat": "37.76601"
          },
          {
            "lon": "-122.39968",
            "lat": "37.76623"
          },
          {
            "lon": "-122.39678",
            "lat": "37.7664"
          },
          {
            "lon": "-122.39253",
            "lat": "37.76665"
          },
          {
            "lon": "-122.39072",
            "lat": "37.76677"
          },
          {
            "lon": "-122.38911",
            "lat": "37.76691"
          },
          {
            "lon": "-122.3893",
            "lat": "37.76956"
          },
          {
            "lon": "-122.38952",
            "lat": "37.77112"
          },
          {
            "lon": "-122.38962",
            "lat": "37.77116"
          },
          {
            "lon": "-122.39122",
            "lat": "37.771"
          },
          {
            "lon": "-122.39117",
            "lat": "37.77056"
          },
          {
            "lon": "-122.39104",
            "lat": "37.77051"
          }
        ]
      },
      {
        "point": [
          {
            "lon": "-122.41983",
            "lat": "37.76498"
          },
          {
            "lon": "-122.41605",
            "lat": "37.76522"
          },
          {
            "lon": "-122.41329",
            "lat": "37.76538"
          },
          {
            "lon": "-122.41041",
            "lat": "37.7656"
          }
        ]
      },
      {
        "point": [
          {
            "lon": "-122.39104",
            "lat": "37.77051"
          },
          {
            "lon": "-122.38948",
            "lat": "37.77066"
          },
          {
            "lon": "-122.38944",
            "lat": "37.76932"
          },
          {
            "lon": "-122.38911",
            "lat": "37.76691"
          },
          {
            "lon": "-122.39089",
            "lat": "37.76686"
          },
          {
            "lon": "-122.3928",
            "lat": "37.76672"
          },
          {
            "lon": "-122.39701",
            "lat": "37.76649"
          },
          {
            "lon": "-122.39984",
            "lat": "37.76629"
          },
          {
            "lon": "-122.40263",
            "lat": "37.76612"
          },
          {
            "lon": "-122.40469",
            "lat": "37.7660399"
          },
          {
            "lon": "-122.40762",
            "lat": "37.7658"
          },
          {
            "lon": "-122.41029",
            "lat": "37.7656599"
          }
        ]
      }
    ],
    "lonMax": "-122.3892999",
    "oppositeColor": "ffffff",
    "latMin": "37.7649799"
  },
  "copyright": "All data copyright San Francisco Muni 2017."
}