{
  "route": {
    "latMax": "37.8073499",
    "stop": [
      {
        "lon": "-122.40721",
        "title": "Kearny St & North Point St",
        "stopId": "14823",
        "tag": "4823",
        "lat": "37.8071799"
      },
      {
        "lon": "-122.4079",
        "title": "North Point St & Kearny St",
        "stopId": "15462",
        "tag": "5462",
        "lat": "37.8073499"
      },
      {
        "lon": "-122.41038",
        "title": "North Point St & Stockton St",
        "stopId": "15470",
        "tag": "5470",
        "lat": "37.8070399"
      },
      {
        "lon": "-122.4121799",
        "title": "Powell St & North Point St",
        "stopId": "16066",
        "tag": "6066",
        "lat": "37.8065"
      },
      {
        "lon": "-122.4118799",
        "title": "Powell St & Francisco St",
        "stopId": "16055",
        "tag": "6055",
        "lat": "37.8049599"
      },
      {
        "lon": "-122.4114299",
        "title": "Powell St & Lombard St",
        "stopId": "16061",
        "tag": "6061",
        "lat": "37.8027699"
      },
      {
        "lon": "-122.41112",
        "title": "Powell St & Filbert St",
        "stopId": "16054",
        "tag": "6054",
        "lat": "37.80123"
      },
      {
        "lon": "-122.41024",
        "title": "Columbus Ave & Union St",
        "stopId": "14120",
        "tag": "4120",
        "lat": "37.8003299"
      },
      {
        "lon": "-122.4090499",
        "title": "Stockton St & Columbus Ave",
        "stopId": "16513",
        "tag": "6513",
        "lat": "37.7992799"
      },
      {
        "lon": "-122.4085999",
        "title": "Stockton St & Pacific Ave",
        "stopId": "16521",
        "tag": "6521",
        "lat": "37.7971899"
      },
      {
        "lon": "-122.40832",
        "title": "Stockton St & Jackson Sts",
        "stopId": "17777",
        "tag": "7777",
        "lat": "37.79575"
      },
      {
        "lon": "-122.4078599",
        "title": "Stockton St & Sacramento St",
        "stopId": "16522",
        "tag": "6522",
        "lat": "37.7934299"
      },
      {
        "lon": "-122.40706",
        "title": "Stockton St & Sutter St",
        "stopId": "16524",
        "tag": "6524",
        "lat": "37.7894899"
      },
      {
        "lon": "-122.40996",
        "title": "Mason St & Geary Blvd",
        "stopId": "17649",
        "tag": "7649",
        "lat": "37.78721"
      },
      {
        "lon": "-122.40821",
        "title": "Cyril Magnin St(5th St N) & Market St",
        "stopId": "13612",
        "tag": "3612",
        "lat": "37.78401"
      },
      {
        "lon": "-122.4066499",
        "title": "5th St & Mission St",
        "stopId": "13173",
        "tag": "3173",
        "lat": "37.7827699"
      },
      {
        "lon": "-122.4047399",
        "title": "5th St & Howard St",
        "stopId": "13171",
        "tag": "3171",
        "lat": "37.7812299"
      },
      {
        "lon": "-122.40357",
        "title": "5th St & Folsom St",
        "stopId": "13168",
        "tag": "3168",
        "lat": "37.78031"
      },
      {
        "lon": "-122.40214",
        "title": "Harrison St & 5th St",
        "stopId": "14969",
        "tag": "4969",
        "lat": "37.7789099"
      },
      {
        "lon": "-122.40436",
        "title": "Harrison St & 6th St",
        "stopId": "14970",
        "tag": "4970",
        "lat": "37.7771499"
      },
      {
        "lon": "-122.4046299",
        "title": "San Bruno Ave & Felton St",
        "stopId": "17900",
        "tag": "7900",
        "lat": "37.7299099"
      },
      {
        "lon": "-122.40365",
        "title": "San Bruno Ave & Bacon St",
        "stopId": "16357",
        "tag": "6357",
        "lat": "37.72752"
      },
      {
        "lon": "-122.4021999",
        "title": "San Bruno Ave & Dwight St",
        "stopId": "16358",
        "tag": "6358",
        "lat": "37.7240799"
      },
      {
        "lon": "-122.4012199",
        "title": "San Bruno Ave & Mansell St",
        "stopId": "16361",
        "tag": "6361",
        "lat": "37.7215999"
      },
      {
        "lon": "-122.4004899",
        "title": "San Bruno Ave & Ward St",
        "stopId": "16369",
        "tag": "6369",
        "lat": "37.7190499"
      },
      {
        "lon": "-122.39993",
        "title": "San Bruno Ave & Wilde Ave",
        "stopId": "16371",
        "tag": "6371",
        "lat": "37.71672"
      },
      {
        "lon": "-122.4005699",
        "title": "3800 San Bruno Ave",
        "stopId": "16348",
        "tag": "6348",
        "lat": "37.71479"
      },
      {
        "lon": "-122.4021299",
        "title": "San Bruno Ave & Somerset St",
        "stopId": "16366",
        "tag": "6366",
        "lat": "37.71384"
      },
      {
        "lon": "-122.40261",
        "title": "Bay Shore Blvd & Arleta Ave",
        "stopId": "13772",
        "tag": "3772",
        "lat": "37.7122399"
      },
      {
        "lon": "-122.4037799",
        "title": "Bay Shore Blvd & Leland Ave",
        "stopId": "13783",
        "tag": "3783",
        "lat": "37.71114"
      },
      {
        "lon": "-122.40449",
        "title": "Visitacion Ave & Bayshore Blvd",
        "stopId": "16847",
        "tag": "6847",
        "lat": "37.71057"
      },
      {
        "lon": "-122.4077899",
        "title": "Visitacion Ave & Rutland St",
        "stopId": "16850",
        "tag": "6850",
        "lat": "37.7114899"
      },
      {
        "lon": "-122.4105",
        "title": "Visitacion Ave & Schwerin St",
        "stopId": "16854",
        "tag": "6854",
        "lat": "37.71225"
      },
      {
        "lon": "-122.41237",
        "title": "Visitacion Ave & Britton St",
        "stopId": "16845",
        "tag": "6845",
        "lat": "37.71277"
      },
      {
        "lon": "-122.4142399",
        "title": "Visitacion Ave & Sawyer St",
        "stopId": "16852",
        "tag": "6852",
        "lat": "37.7132799"
      },
      {
        "lon": "-122.41549",
        "title": "Hahn St & Visitacion Ave",
        "stopId": "17026",
        "tag": "7026",
        "lat": "37.7132999"
      },
      {
        "lon": "-122.4160499",
        "title": "Hahn St & Sunnydale Ave",
        "stopId": "14938",
        "tag": "4938",
        "lat": "37.7120299"
      },
      {
        "lon": "-122.41818",
        "title": "Sunnydale Ave & Santos St",
        "stopId": "16577",
        "tag": "6577",
        "lat": "37.7124199"
      },
      {
        "lon": "-122.4188599",
        "title": "Santos St & Brookdale Ave",
        "stopId": "16339",
        "tag": "6339",
        "lat": "37.7117"
      },
      {
        "lon": "-122.4194299",
        "title": "Santos St & Velasco Ave",
        "stopId": "16346",
        "tag": "6346",
        "lat": "37.71003"
      },
      {
        "lon": "-122.42035",
        "title": "Geneva Ave & Santos St",
        "stopId": "14900",
        "tag": "4900",
        "lat": "37.70848"
      },
      {
        "lon": "-122.42322",
        "title": "Geneva Ave & Carter St",
        "stopId": "17300",
        "tag": "7300",
        "lat": "37.7093099"
      },
      {
        "lon": "-122.4262699",
        "title": "1721 Geneva Ave",
        "stopId": "14798",
        "tag": "4798",
        "lat": "37.7110799"
      },
      {
        "lon": "-122.4281899",
        "title": "1650 Geneva Ave",
        "stopId": "14795",
        "tag": "4795",
        "lat": "37.7118699"
      },
      {
        "lon": "-122.4318",
        "title": "Geneva Ave & Prague St",
        "stopId": "14894",
        "tag": "4894",
        "lat": "37.71283"
      },
      {
        "lon": "-122.43396",
        "title": "Geneva Ave & Moscow St",
        "stopId": "14889",
        "tag": "4889",
        "lat": "37.71333"
      },
      {
        "lon": "-122.43604",
        "title": "Geneva Ave & Naples St",
        "stopId": "14890",
        "tag": "4890",
        "lat": "37.71425"
      },
      {
        "lon": "-122.4380299",
        "title": "Geneva Ave & Madrid St",
        "stopId": "14884",
        "tag": "4884",
        "lat": "37.7151399"
      },
      {
        "lon": "-122.4392999",
        "title": "Geneva Ave & Paris St",
        "stopId": "14892",
        "tag": "4892",
        "lat": "37.7157099"
      },
      {
        "lon": "-122.44087",
        "title": "Geneva Ave & Mission St",
        "stopId": "14886",
        "tag": "4886",
        "lat": "37.7164699"
      },
      {
        "lon": "-122.4435499",
        "title": "Geneva Ave & Cayuga Ave",
        "stopId": "14810",
        "tag": "4810",
        "lat": "37.7189299"
      },
      {
        "lon": "-122.44536",
        "title": "Geneva Ave & Delano Ave",
        "stopId": "14879",
        "tag": "4879",
        "lat": "37.72028"
      },
      {
        "lon": "-122.4467399",
        "title": "Balboa Park Bart Station",
        "stopId": "14803",
        "tag": "4803",
        "lat": "37.7207999"
      },
      {
        "lon": "-122.4499799",
        "title": "Geneva Ave & Howth St",
        "stopId": "14881",
        "tag": "4881",
        "lat": "37.7221199"
      },
      {
        "lon": "-122.45267",
        "title": "City College Terminal (Phelan Loop)",
        "stopId": "135926",
        "tag": "35926",
        "lat": "37.7236299"
      },
      {
        "lon": "-122.45267",
        "title": "City College Terminal (Phelan Loop)",
        "stopId": "15926",
        "tag": "5926",
        "lat": "37.7236299"
      },
      {
        "lon": "-122.4500699",
        "title": "Geneva Ave & Howth St",
        "stopId": "14882",
        "tag": "4882",
        "lat": "37.7219799"
      },
      {
        "lon": "-122.4473799",
        "title": "Balboa Park Bart Station",
        "stopId": "14805",
        "tag": "4805",
        "lat": "37.7209499"
      },
      {
        "lon": "-122.44526",
        "title": "Geneva Ave & Delano Ave",
        "stopId": "14816",
        "tag": "4816",
        "lat": "37.72007"
      },
      {
        "lon": "-122.4435499",
        "title": "Geneva Ave & Cayuga Ave",
        "stopId": "14811",
        "tag": "4811",
        "lat": "37.7187199"
      },
      {
        "lon": "-122.44101",
        "title": "Geneva Ave & Mission St",
        "stopId": "17671",
        "tag": "7671",
        "lat": "37.7164199"
      },
      {
        "lon": "-122.43961",
        "title": "Geneva Ave & Paris St",
        "stopId": "14893",
        "tag": "4893",
        "lat": "37.71568"
      },
      {
        "lon": "-122.4375899",
        "title": "Geneva Ave & Madrid St",
        "stopId": "14883",
        "tag": "4883",
        "lat": "37.7147699"
      },
      {
        "lon": "-122.43596",
        "title": "Geneva Ave & Naples St",
        "stopId": "14891",
        "tag": "4891",
        "lat": "37.71403"
      },
      {
        "lon": "-122.4330299",
        "title": "Geneva Ave & Munich St",
        "stopId": "14888",
        "tag": "4888",
        "lat": "37.7129499"
      },
      {
        "lon": "-122.4282899",
        "title": "1650 Geneva Ave",
        "stopId": "14796",
        "tag": "4796",
        "lat": "37.7117399"
      },
      {
        "lon": "-122.42576",
        "title": "1701 Geneva Ave",
        "stopId": "14799",
        "tag": "4799",
        "lat": "37.71072"
      },
      {
        "lon": "-122.4230999",
        "title": "Geneva Ave & Carter",
        "stopId": "17304",
        "tag": "7304",
        "lat": "37.7090799"
      },
      {
        "lon": "-122.41987",
        "title": "Santos St & Geneva Ave",
        "stopId": "16343",
        "tag": "6343",
        "lat": "37.7086399"
      },
      {
        "lon": "-122.4193",
        "title": "Santos St & Velasco Ave",
        "stopId": "16345",
        "tag": "6345",
        "lat": "37.7098699"
      },
      {
        "lon": "-122.41868",
        "title": "Santos St & Brookdale Ave",
        "stopId": "16340",
        "tag": "6340",
        "lat": "37.7118599"
      },
      {
        "lon": "-122.4175399",
        "title": "Sunnydale Ave & Santos St",
        "stopId": "16578",
        "tag": "6578",
        "lat": "37.7122299"
      },
      {
        "lon": "-122.4158999",
        "title": "Hahn St & Sunnydale Ave",
        "stopId": "14937",
        "tag": "4937",
        "lat": "37.71201"
      },
      {
        "lon": "-122.4145299",
        "title": "Visitacion Ave & Sawyer St",
        "stopId": "16853",
        "tag": "6853",
        "lat": "37.7132399"
      },
      {
        "lon": "-122.4126299",
        "title": "Visitacion Ave & Britton St",
        "stopId": "16846",
        "tag": "6846",
        "lat": "37.7127299"
      },
      {
        "lon": "-122.4107799",
        "title": "Visitacion Ave & Schwerin St",
        "stopId": "16855",
        "tag": "6855",
        "lat": "37.7121899"
      },
      {
        "lon": "-122.4089599",
        "title": "Visitacion Ave & Cora St",
        "stopId": "16848",
        "tag": "6848",
        "lat": "37.7116999"
      },
      {
        "lon": "-122.4080699",
        "title": "Visitacion Ave & Rutland St",
        "stopId": "16851",
        "tag": "6851",
        "lat": "37.7114399"
      },
      {
        "lon": "-122.40389",
        "title": "Bay Shore Blvd & Visitacion Ave",
        "stopId": "13793",
        "tag": "3793",
        "lat": "37.7106199"
      },
      {
        "lon": "-122.40242",
        "title": "San Bruno Ave & Arleta Ave",
        "stopId": "16352",
        "tag": "6352",
        "lat": "37.7122899"
      },
      {
        "lon": "-122.40199",
        "title": "San Bruno Ave & Somerset St",
        "stopId": "17191",
        "tag": "7191",
        "lat": "37.7133999"
      },
      {
        "lon": "-122.40046",
        "title": "3801 San Bruno Ave",
        "stopId": "16350",
        "tag": "6350",
        "lat": "37.7146699"
      },
      {
        "lon": "-122.4001099",
        "title": "San Bruno Ave & Harkness Ave",
        "stopId": "17899",
        "tag": "7899",
        "lat": "37.7180399"
      },
      {
        "lon": "-122.40095",
        "title": "San Bruno Ave & Mansell St",
        "stopId": "16360",
        "tag": "6360",
        "lat": "37.72148"
      },
      {
        "lon": "-122.4020999",
        "title": "San Bruno Ave & Paul Ave",
        "stopId": "16362",
        "tag": "6362",
        "lat": "37.7241799"
      },
      {
        "lon": "-122.4030099",
        "title": "San Bruno Ave & Wayland St",
        "stopId": "16373",
        "tag": "6373",
        "lat": "37.7263699"
      },
      {
        "lon": "-122.4036699",
        "title": "San Bruno Ave & Bacon St",
        "stopId": "16355",
        "tag": "6355",
        "lat": "37.7279699"
      },
      {
        "lon": "-122.4046199",
        "title": "San Bruno Ave & Thornton Ave",
        "stopId": "16367",
        "tag": "6367",
        "lat": "37.7302599"
      },
      {
        "lon": "-122.40552",
        "title": "San Bruno Ave & Silver Ave",
        "stopId": "16364",
        "tag": "6364",
        "lat": "37.7323799"
      },
      {
        "lon": "-122.40223",
        "title": "Bryant St & 6th St",
        "stopId": "13725",
        "tag": "3725",
        "lat": "37.7761599"
      },
      {
        "lon": "-122.39995",
        "title": "Bryant St & 5th St",
        "stopId": "13724",
        "tag": "3724",
        "lat": "37.7779499"
      },
      {
        "lon": "-122.3980699",
        "title": "Bryant St & 4th St",
        "stopId": "13723",
        "tag": "3723",
        "lat": "37.77947"
      },
      {
        "lon": "-122.3967999",
        "title": "3rd St & Perry (Harrison) St",
        "stopId": "13144",
        "tag": "3144",
        "lat": "37.7821099"
      },
      {
        "lon": "-122.39933",
        "title": "3rd St & Folsom St",
        "stopId": "13124",
        "tag": "3124",
        "lat": "37.7842"
      },
      {
        "lon": "-122.4002499",
        "title": "3rd St & Howard St",
        "stopId": "13128",
        "tag": "3128",
        "lat": "37.7849499"
      },
      {
        "lon": "-122.40211",
        "title": "3rd St & Mission St",
        "stopId": "13136",
        "tag": "3136",
        "lat": "37.78637"
      },
      {
        "lon": "-122.40346",
        "title": "Kearny St & Geary Blvd",
        "stopId": "14821",
        "tag": "4821",
        "lat": "37.78805"
      },
      {
        "lon": "-122.40372",
        "title": "Kearny St & Sutter St",
        "stopId": "14826",
        "tag": "4826",
        "lat": "37.78975"
      },
      {
        "lon": "-122.4039799",
        "title": "Kearny St & Bush St",
        "stopId": "14818",
        "tag": "4818",
        "lat": "37.7909999"
      },
      {
        "lon": "-122.40436",
        "title": "Kearny St & California St",
        "stopId": "14819",
        "tag": "4819",
        "lat": "37.79288"
      },
      {
        "lon": "-122.40474",
        "title": "Kearny St & Clay St",
        "stopId": "14820",
        "tag": "4820",
        "lat": "37.7947"
      },
      {
        "lon": "-122.4050299",
        "title": "Kearny St & Jackson St",
        "stopId": "14822",
        "tag": "4822",
        "lat": "37.7961299"
      },
      {
        "lon": "-122.4057399",
        "title": "Columbus Ave & Kearny St",
        "stopId": "14111",
        "tag": "4111",
        "lat": "37.7973199"
      },
      {
        "lon": "-122.4068999",
        "title": "Columbus Ave & Broadway",
        "stopId": "14101",
        "tag": "4101",
        "lat": "37.7981199"
      },
      {
        "lon": "-122.4087199",
        "title": "Columbus Ave & Green St",
        "stopId": "14108",
        "tag": "4108",
        "lat": "37.7993899"
      },
      {
        "lon": "-122.41036",
        "title": "Columbus Ave & Union St",
        "stopId": "14119",
        "tag": "4119",
        "lat": "37.8005"
      },
      {
        "lon": "-122.4112699",
        "title": "Powell St & Lombard St",
        "stopId": "16060",
        "tag": "6060",
        "lat": "37.8029499"
      },
      {
        "lon": "-122.4116499",
        "title": "Powell St & Francisco St",
        "stopId": "16056",
        "tag": "6056",
        "lat": "37.8048099"
      },
      {
        "lon": "-122.41183",
        "title": "Powell St & Bay St",
        "stopId": "16045",
        "tag": "6045",
        "lat": "37.80574"
      },
      {
        "lon": "-122.40916",
        "title": "Bay St & Midway St",
        "stopId": "13031",
        "tag": "3031",
        "lat": "37.8060899"
      },
      {
        "lon": "-122.40721",
        "title": "Kearny St & North Point St",
        "stopId": "134823",
        "tag": "34823",
        "lat": "37.8071799"
      }
    ],
    "title": "8-Bayshore",
    "lonMin": "-122.45267",
    "color": "b07d00",
    "direction": [
      {
        "stop": [
          {
            "tag": "4823"
          },
          {
            "tag": "5462"
          },
          {
            "tag": "5470"
          },
          {
            "tag": "6066"
          },
          {
            "tag": "6055"
          },
          {
            "tag": "6061"
          },
          {
            "tag": "6054"
          },
          {
            "tag": "4120"
          },
          {
            "tag": "6513"
          },
          {
            "tag": "6521"
          },
          {
            "tag": "7777"
          },
          {
            "tag": "6522"
          },
          {
            "tag": "6524"
          },
          {
            "tag": "7649"
          },
          {
            "tag": "3612"
          },
          {
            "tag": "3173"
          },
          {
            "tag": "3171"
          },
          {
            "tag": "3168"
          },
          {
            "tag": "4969"
          },
          {
            "tag": "4970"
          },
          {
            "tag": "7900"
          },
          {
            "tag": "6357"
          },
          {
            "tag": "6358"
          },
          {
            "tag": "6361"
          },
          {
            "tag": "6369"
          },
          {
            "tag": "6371"
          },
          {
            "tag": "6348"
          },
          {
            "tag": "6366"
          },
          {
            "tag": "3772"
          },
          {
            "tag": "3783"
          },
          {
            "tag": "6847"
          },
          {
            "tag": "6850"
          },
          {
            "tag": "6854"
          },
          {
            "tag": "6845"
          },
          {
            "tag": "6852"
          },
          {
            "tag": "7026"
          },
          {
            "tag": "4938"
          },
          {
            "tag": "6577"
          },
          {
            "tag": "6339"
          },
          {
            "tag": "6346"
          },
          {
            "tag": "4900"
          },
          {
            "tag": "7300"
          },
          {
            "tag": "4798"
          },
          {
            "tag": "4795"
          },
          {
            "tag": "4894"
          },
          {
            "tag": "4889"
          },
          {
            "tag": "4890"
          },
          {
            "tag": "4884"
          },
          {
            "tag": "4892"
          },
          {
            "tag": "4886"
          },
          {
            "tag": "4810"
          },
          {
            "tag": "4879"
          },
          {
            "tag": "4803"
          },
          {
            "tag": "4881"
          },
          {
            "tag": "35926"
          }
        ],
        "title": "Outbound to City College",
        "useForUI": "true",
        "tag": "8____O_F00",
        "name": "Outbound"
      },
      {
        "stop": [
          {
            "tag": "5926"
          },
          {
            "tag": "4882"
          },
          {
            "tag": "4805"
          },
          {
            "tag": "4816"
          },
          {
            "tag": "4811"
          },
          {
            "tag": "7671"
          },
          {
            "tag": "4893"
          },
          {
            "tag": "4883"
          },
          {
            "tag": "4891"
          },
          {
            "tag": "4888"
          },
          {
            "tag": "4796"
          },
          {
            "tag": "4799"
          },
          {
            "tag": "7304"
          },
          {
            "tag": "6343"
          },
          {
            "tag": "6345"
          },
          {
            "tag": "6340"
          },
          {
            "tag": "6578"
          },
          {
            "tag": "4937"
          },
          {
            "tag": "6853"
          },
          {
            "tag": "6846"
          },
          {
            "tag": "6855"
          },
          {
            "tag": "6848"
          },
          {
            "tag": "6851"
          },
          {
            "tag": "3793"
          },
          {
            "tag": "6352"
          },
          {
            "tag": "7191"
          },
          {
            "tag": "6350"
          },
          {
            "tag": "7899"
          },
          {
            "tag": "6360"
          },
          {
            "tag": "6362"
          },
          {
            "tag": "6373"
          },
          {
            "tag": "6355"
          },
          {
            "tag": "6367"
          },
          {
            "tag": "6364"
          },
          {
            "tag": "3725"
          },
          {
            "tag": "3724"
          },
          {
            "tag": "3723"
          },
          {
            "tag": "3144"
          },
          {
            "tag": "3124"
          },
          {
            "tag": "3128"
          },
          {
            "tag": "3136"
          },
          {
            "tag": "4821"
          },
          {
            "tag": "4826"
          },
          {
            "tag": "4818"
          },
          {
            "tag": "4819"
          },
          {
            "tag": "4820"
          },
          {
            "tag": "4822"
          },
          {
            "tag": "4111"
          },
          {
            "tag": "4101"
          },
          {
            "tag": "4108"
          },
          {
            "tag": "4119"
          },
          {
            "tag": "6060"
          },
          {
            "tag": "6056"
          },
          {
            "tag": "6045"
          },
          {
            "tag": "3031"
          },
          {
            "tag": "34823"
          }
        ],
        "title": "Inbound to Fisherman's Wharf",
        "useForUI": "true",
        "tag": "8____I_F00",
        "name": "Inbound"
      }
    ],
    "tag": "8",
    "path": [
      {
        "point": [
          {
            "lon": "-122.40223",
            "lat": "37.77616"
          },
          {
            "lon": "-122.39995",
            "lat": "37.77795"
          },
          {
            "lon": "-122.39807",
            "lat": "37.77947"
          },
          {
            "lon": "-122.39586",
            "lat": "37.7813299"
          },
          {
            "lon": "-122.3968",
            "lat": "37.78211"
          },
          {
            "lon": "-122.39933",
            "lat": "37.7842"
          },
          {
            "lon": "-122.40025",
            "lat": "37.78495"
          },
          {
            "lon": "-122.40211",
            "lat": "37.78637"
          },
          {
            "lon": "-122.40335",
            "lat": "37.78728"
          },
          {
            "lon": "-122.40346",
            "lat": "37.78805"
          },
          {
            "lon": "-122.40372",
            "lat": "37.78975"
          },
          {
            "lon": "-122.40398",
            "lat": "37.7909999"
          },
          {
            "lon": "-122.40436",
            "lat": "37.7928799"
          },
          {
            "lon": "-122.40474",
            "lat": "37.7947"
          },
          {
            "lon": "-122.40503",
            "lat": "37.79613"
          },
          {
            "lon": "-122.4053",
            "lat": "37.7969099"
          },
          {
            "lon": "-122.40574",
            "lat": "37.79732"
          },
          {
            "lon": "-122.4069",
            "lat": "37.79812"
          },
          {
            "lon": "-122.40872",
            "lat": "37.79939"
          },
          {
            "lon": "-122.41036",
            "lat": "37.8005"
          },
          {
            "lon": "-122.41097",
            "lat": "37.80084"
          },
          {
            "lon": "-122.41127",
            "lat": "37.80295"
          },
          {
            "lon": "-122.41165",
            "lat": "37.80481"
          },
          {
            "lon": "-122.41183",
            "lat": "37.80574"
          },
          {
            "lon": "-122.41196",
            "lat": "37.80583"
          },
          {
            "lon": "-122.41032",
            "lat": "37.80603"
          },
          {
            "lon": "-122.40916",
            "lat": "37.80609"
          },
          {
            "lon": "-122.40716",
            "lat": "37.80643"
          },
          {
            "lon": "-122.40721",
            "lat": "37.80718"
          }
        ]
      },
      {
        "point": [
          {
            "lon": "-122.40552",
            "lat": "37.73238"
          },
          {
            "lon": "-122.40622",
            "lat": "37.73349"
          },
          {
            "lon": "-122.40715",
            "lat": "37.73507"
          },
          {
            "lon": "-122.40751",
            "lat": "37.7355"
          },
          {
            "lon": "-122.40765",
            "lat": "37.73574"
          },
          {
            "lon": "-122.40723",
            "lat": "37.73631"
          },
          {
            "lon": "-122.40712",
            "lat": "37.73671"
          },
          {
            "lon": "-122.40723",
            "lat": "37.73704"
          },
          {
            "lon": "-122.40746",
            "lat": "37.73737"
          },
          {
            "lon": "-122.40798",
            "lat": "37.73862"
          },
          {
            "lon": "-122.408",
            "lat": "37.73921"
          },
          {
            "lon": "-122.40776",
            "lat": "37.74059"
          },
          {
            "lon": "-122.40747",
            "lat": "37.74142"
          },
          {
            "lon": "-122.40729",
            "lat": "37.74175"
          },
          {
            "lon": "-122.40627",
            "lat": "37.74308"
          },
          {
            "lon": "-122.40545",
            "lat": "37.74411"
          },
          {
            "lon": "-122.40483",
            "lat": "37.7453999"
          },
          {
            "lon": "-122.40452",
            "lat": "37.74653"
          },
          {
            "lon": "-122.40287",
            "lat": "37.75186"
          },
          {
            "lon": "-122.4028",
            "lat": "37.7528099"
          },
          {
            "lon": "-122.4032",
            "lat": "37.75652"
          },
          {
            "lon": "-122.40336",
            "lat": "37.75687"
          },
          {
            "lon": "-122.40361",
            "lat": "37.75723"
          },
          {
            "lon": "-122.40402",
            "lat": "37.75764"
          },
          {
            "lon": "-122.40539",
            "lat": "37.75864"
          },
          {
            "lon": "-122.40574",
            "lat": "37.75902"
          },
          {
            "lon": "-122.40608",
            "lat": "37.75951"
          },
          {
            "lon": "-122.4062",
            "lat": "37.7598399"
          },
          {
            "lon": "-122.40629",
            "lat": "37.76027"
          },
          {
            "lon": "-122.40629",
            "lat": "37.76067"
          },
          {
            "lon": "-122.40609",
            "lat": "37.76135"
          },
          {
            "lon": "-122.40506",
            "lat": "37.76329"
          },
          {
            "lon": "-122.40491",
            "lat": "37.76385"
          },
          {
            "lon": "-122.4048",
            "lat": "37.76543"
          },
          {
            "lon": "-122.40522",
            "lat": "37.76981"
          },
          {
            "lon": "-122.40541",
            "lat": "37.77038"
          },
          {
            "lon": "-122.40564",
            "lat": "37.77082"
          },
          {
            "lon": "-122.40632",
            "lat": "37.77187"
          },
          {
            "lon": "-122.40651",
            "lat": "37.77235"
          },
          {
            "lon": "-122.40656",
            "lat": "37.77275"
          },
          {
            "lon": "-122.40642",
            "lat": "37.77338"
          },
          {
            "lon": "-122.40616",
            "lat": "37.7738"
          },
          {
            "lon": "-122.4057",
            "lat": "37.77415"
          },
          {
            "lon": "-122.4049",
            "lat": "37.7744"
          },
          {
            "lon": "-122.40423",
            "lat": "37.77471"
          },
          {
            "lon": "-122.40223",
            "lat": "37.77616"
          }
        ]
      },
      {
        "point": [
          {
            "lon": "-122.41024",
            "lat": "37.80033"
          },
          {
            "lon": "-122.40903",
            "lat": "37.79949"
          },
          {
            "lon": "-122.40905",
            "lat": "37.79928"
          },
          {
            "lon": "-122.4086",
            "lat": "37.79719"
          },
          {
            "lon": "-122.40832",
            "lat": "37.79575"
          },
          {
            "lon": "-122.40786",
            "lat": "37.79343"
          },
          {
            "lon": "-122.40697",
            "lat": "37.78944"
          },
          {
            "lon": "-122.40706",
            "lat": "37.78949"
          }
        ]
      },
      {
        "point": [
          {
            "lon": "-122.45267",
            "lat": "37.72363"
          },
          {
            "lon": "-122.45234",
            "lat": "37.72309"
          },
          {
            "lon": "-122.4519",
            "lat": "37.72275"
          },
          {
            "lon": "-122.45007",
            "lat": "37.72198"
          },
          {
            "lon": "-122.44738",
            "lat": "37.72095"
          },
          {
            "lon": "-122.44526",
            "lat": "37.72007"
          },
          {
            "lon": "-122.44514",
            "lat": "37.72009"
          },
          {
            "lon": "-122.44371",
            "lat": "37.71893"
          },
          {
            "lon": "-122.44355",
            "lat": "37.71872"
          },
          {
            "lon": "-122.44163",
            "lat": "37.71726"
          },
          {
            "lon": "-122.44126",
            "lat": "37.7168599"
          },
          {
            "lon": "-122.44103",
            "lat": "37.71646"
          },
          {
            "lon": "-122.44101",
            "lat": "37.71642"
          }
        ]
      },
      {
        "point": [
          {
            "lon": "-122.40706",
            "lat": "37.78949"
          },
          {
            "lon": "-122.40861",
            "lat": "37.78923"
          },
          {
            "lon": "-122.41025",
            "lat": "37.78902"
          },
          {
            "lon": "-122.40996",
            "lat": "37.78721"
          },
          {
            "lon": "-122.40932",
            "lat": "37.78435"
          },
          {
            "lon": "-122.40851",
            "lat": "37.78446"
          },
          {
            "lon": "-122.40821",
            "lat": "37.78401"
          },
          {
            "lon": "-122.40808",
            "lat": "37.784"
          },
          {
            "lon": "-122.40665",
            "lat": "37.78277"
          },
          {
            "lon": "-122.40474",
            "lat": "37.78123"
          },
          {
            "lon": "-122.40357",
            "lat": "37.78031"
          },
          {
            "lon": "-122.40186",
            "lat": "37.77904"
          },
          {
            "lon": "-122.40214",
            "lat": "37.77891"
          },
          {
            "lon": "-122.40436",
            "lat": "37.77715"
          }
        ]
      },
      {
        "point": [
          {
            "lon": "-122.40721",
            "lat": "37.80718"
          },
          {
            "lon": "-122.4079",
            "lat": "37.80735"
          },
          {
            "lon": "-122.41038",
            "lat": "37.80704"
          },
          {
            "lon": "-122.41215",
            "lat": "37.80676"
          },
          {
            "lon": "-122.41218",
            "lat": "37.8065"
          },
          {
            "lon": "-122.41188",
            "lat": "37.80496"
          },
          {
            "lon": "-122.41143",
            "lat": "37.80277"
          },
          {
            "lon": "-122.41112",
            "lat": "37.8012299"
          },
          {
            "lon": "-122.41103",
            "lat": "37.80117"
          },
          {
            "lon": "-122.41139",
            "lat": "37.80113"
          },
          {
            "lon": "-122.41024",
            "lat": "37.80033"
          }
        ]
      },
      {
        "point": [
          {
            "lon": "-122.40436",
            "lat": "37.77715"
          },
          {
            "lon": "-122.40631",
            "lat": "37.77552"
          },
          {
            "lon": "-122.40659",
            "lat": "37.775"
          },
          {
            "lon": "-122.40694",
            "lat": "37.77381"
          },
          {
            "lon": "-122.40693",
            "lat": "37.77302"
          },
          {
            "lon": "-122.40562",
            "lat": "37.76979"
          },
          {
            "lon": "-122.40507",
            "lat": "37.76432"
          },
          {
            "lon": "-122.40512",
            "lat": "37.76386"
          },
          {
            "lon": "-122.40522",
            "lat": "37.76348"
          },
          {
            "lon": "-122.40603",
            "lat": "37.76187"
          },
          {
            "lon": "-122.40629",
            "lat": "37.7614"
          },
          {
            "lon": "-122.4065",
            "lat": "37.7606899"
          },
          {
            "lon": "-122.4065",
            "lat": "37.76026"
          },
          {
            "lon": "-122.40627",
            "lat": "37.75946"
          },
          {
            "lon": "-122.40612",
            "lat": "37.7592"
          },
          {
            "lon": "-122.40556",
            "lat": "37.75854"
          },
          {
            "lon": "-122.40379",
            "lat": "37.75714"
          },
          {
            "lon": "-122.40356",
            "lat": "37.75681"
          },
          {
            "lon": "-122.40341",
            "lat": "37.75648"
          },
          {
            "lon": "-122.40332",
            "lat": "37.75617"
          },
          {
            "lon": "-122.40299",
            "lat": "37.75276"
          },
          {
            "lon": "-122.40339",
            "lat": "37.75068"
          },
          {
            "lon": "-122.40519",
            "lat": "37.74499"
          },
          {
            "lon": "-122.40549",
            "lat": "37.74443"
          },
          {
            "lon": "-122.40777",
            "lat": "37.7412599"
          },
          {
            "lon": "-122.40786",
            "lat": "37.74103"
          },
          {
            "lon": "-122.40813",
            "lat": "37.73982"
          },
          {
            "lon": "-122.40819",
            "lat": "37.73907"
          },
          {
            "lon": "-122.40808",
            "lat": "37.7381"
          },
          {
            "lon": "-122.40766",
            "lat": "37.7366699"
          },
          {
            "lon": "-122.40532",
            "lat": "37.7323499"
          },
          {
            "lon": "-122.40491",
            "lat": "37.73155"
          },
          {
            "lon": "-122.40503",
            "lat": "37.7313199"
          },
          {
            "lon": "-122.40463",
            "lat": "37.7299099"
          },
          {
            "lon": "-122.40365",
            "lat": "37.72752"
          },
          {
            "lon": "-122.4022",
            "lat": "37.72408"
          },
          {
            "lon": "-122.40122",
            "lat": "37.7216"
          },
          {
            "lon": "-122.40093",
            "lat": "37.7211799"
          },
          {
            "lon": "-122.40049",
            "lat": "37.71905"
          },
          {
            "lon": "-122.39993",
            "lat": "37.71672"
          },
          {
            "lon": "-122.39956",
            "lat": "37.7154"
          },
          {
            "lon": "-122.39971",
            "lat": "37.71502"
          },
          {
            "lon": "-122.39995",
            "lat": "37.71488"
          },
          {
            "lon": "-122.40057",
            "lat": "37.71479"
          },
          {
            "lon": "-122.40122",
            "lat": "37.71453"
          },
          {
            "lon": "-122.40164",
            "lat": "37.71452"
          },
          {
            "lon": "-122.4019",
            "lat": "37.71436"
          },
          {
            "lon": "-122.40213",
            "lat": "37.71384"
          },
          {
            "lon": "-122.40211",
            "lat": "37.71351"
          },
          {
            "lon": "-122.40212",
            "lat": "37.71272"
          },
          {
            "lon": "-122.40248",
            "lat": "37.71244"
          },
          {
            "lon": "-122.40247",
            "lat": "37.7121799"
          },
          {
            "lon": "-122.40261",
            "lat": "37.71224"
          },
          {
            "lon": "-122.4028",
            "lat": "37.7121"
          },
          {
            "lon": "-122.40322",
            "lat": "37.71179"
          },
          {
            "lon": "-122.40378",
            "lat": "37.71114"
          },
          {
            "lon": "-122.40424",
            "lat": "37.71041"
          },
          {
            "lon": "-122.40449",
            "lat": "37.71057"
          },
          {
            "lon": "-122.40779",
            "lat": "37.71149"
          },
          {
            "lon": "-122.4105",
            "lat": "37.71225"
          },
          {
            "lon": "-122.41237",
            "lat": "37.71277"
          },
          {
            "lon": "-122.41424",
            "lat": "37.71328"
          },
          {
            "lon": "-122.4153",
            "lat": "37.71351"
          },
          {
            "lon": "-122.41549",
            "lat": "37.7132999"
          },
          {
            "lon": "-122.41605",
            "lat": "37.71203"
          },
          {
            "lon": "-122.41601",
            "lat": "37.71192"
          },
          {
            "lon": "-122.41759",
            "lat": "37.71231"
          },
          {
            "lon": "-122.41804",
            "lat": "37.71234"
          },
          {
            "lon": "-122.41818",
            "lat": "37.71242"
          },
          {
            "lon": "-122.41878",
            "lat": "37.71194"
          },
          {
            "lon": "-122.41886",
            "lat": "37.7117"
          },
          {
            "lon": "-122.41878",
            "lat": "37.71074"
          },
          {
            "lon": "-122.41905",
            "lat": "37.71034"
          },
          {
            "lon": "-122.41932",
            "lat": "37.71005"
          },
          {
            "lon": "-122.41943",
            "lat": "37.71003"
          },
          {
            "lon": "-122.4201",
            "lat": "37.70832"
          },
          {
            "lon": "-122.42035",
            "lat": "37.70848"
          },
          {
            "lon": "-122.42322",
            "lat": "37.70931"
          },
          {
            "lon": "-122.42337",
            "lat": "37.70926"
          },
          {
            "lon": "-122.42405",
            "lat": "37.70964"
          },
          {
            "lon": "-122.42456",
            "lat": "37.71011"
          },
          {
            "lon": "-122.42509",
            "lat": "37.71049"
          },
          {
            "lon": "-122.42555",
            "lat": "37.71074"
          },
          {
            "lon": "-122.42627",
            "lat": "37.71108"
          },
          {
            "lon": "-122.42819",
            "lat": "37.71187"
          },
          {
            "lon": "-122.42938",
            "lat": "37.71224"
          },
          {
            "lon": "-122.4318",
            "lat": "37.7128299"
          },
          {
            "lon": "-122.43372",
            "lat": "37.71315"
          },
          {
            "lon": "-122.43396",
            "lat": "37.71333"
          },
          {
            "lon": "-122.43604",
            "lat": "37.71425"
          },
          {
            "lon": "-122.43803",
            "lat": "37.71514"
          },
          {
            "lon": "-122.4393",
            "lat": "37.71571"
          },
          {
            "lon": "-122.44091",
            "lat": "37.71638"
          },
          {
            "lon": "-122.44087",
            "lat": "37.71647"
          },
          {
            "lon": "-122.44163",
            "lat": "37.71726"
          },
          {
            "lon": "-122.44355",
            "lat": "37.71893"
          },
          {
            "lon": "-122.44514",
            "lat": "37.72009"
          },
          {
            "lon": "-122.44536",
            "lat": "37.72028"
          },
          {
            "lon": "-122.44674",
            "lat": "37.7207999"
          },
          {
            "lon": "-122.44998",
            "lat": "37.7221199"
          },
          {
            "lon": "-122.45152",
            "lat": "37.72269"
          },
          {
            "lon": "-122.45161",
            "lat": "37.723"
          },
          {
            "lon": "-122.45204",
            "lat": "37.72301"
          },
          {
            "lon": "-122.45312",
            "lat": "37.72325"
          },
          {
            "lon": "-122.45323",
            "lat": "37.7235"
          },
          {
            "lon": "-122.45298",
            "lat": "37.72368"
          },
          {
            "lon": "-122.45267",
            "lat": "37.72363"
          }
        ]
      },
      {
        "point": [
          {
            "lon": "-122.41987",
            "lat": "37.70864"
          },
          {
            "lon": "-122.4193",
            "lat": "37.70987"
          },
          {
            "lon": "-122.41936",
            "lat": "37.70995"
          },
          {
            "lon": "-122.41878",
            "lat": "37.71074"
          },
          {
            "lon": "-122.41875",
            "lat": "37.71105"
          },
          {
            "lon": "-122.41868",
            "lat": "37.71186"
          },
          {
            "lon": "-122.41878",
            "lat": "37.71194"
          },
          {
            "lon": "-122.4183",
            "lat": "37.71235"
          },
          {
            "lon": "-122.41759",
            "lat": "37.71231"
          },
          {
            "lon": "-122.41754",
            "lat": "37.71223"
          },
          {
            "lon": "-122.41601",
            "lat": "37.71192"
          },
          {
            "lon": "-122.4159",
            "lat": "37.71201"
          },
          {
            "lon": "-122.4153",
            "lat": "37.71351"
          },
          {
            "lon": "-122.41453",
            "lat": "37.71324"
          },
          {
            "lon": "-122.41263",
            "lat": "37.71273"
          },
          {
            "lon": "-122.41078",
            "lat": "37.71219"
          },
          {
            "lon": "-122.40896",
            "lat": "37.7117"
          },
          {
            "lon": "-122.40807",
            "lat": "37.71144"
          },
          {
            "lon": "-122.40424",
            "lat": "37.71041"
          },
          {
            "lon": "-122.40389",
            "lat": "37.71062"
          },
          {
            "lon": "-122.40322",
            "lat": "37.71179"
          },
          {
            "lon": "-122.40302",
            "lat": "37.71197"
          },
          {
            "lon": "-122.40247",
            "lat": "37.7121799"
          },
          {
            "lon": "-122.40242",
            "lat": "37.71229"
          }
        ]
      },
      {
        "point": [
          {
            "lon": "-122.40242",
            "lat": "37.71229"
          },
          {
            "lon": "-122.40248",
            "lat": "37.71244"
          },
          {
            "lon": "-122.40212",
            "lat": "37.71272"
          },
          {
            "lon": "-122.40199",
            "lat": "37.7134"
          },
          {
            "lon": "-122.40211",
            "lat": "37.71351"
          },
          {
            "lon": "-122.40199",
            "lat": "37.71418"
          },
          {
            "lon": "-122.4018",
            "lat": "37.71446"
          },
          {
            "lon": "-122.40122",
            "lat": "37.71453"
          },
          {
            "lon": "-122.40046",
            "lat": "37.71467"
          },
          {
            "lon": "-122.39995",
            "lat": "37.71488"
          },
          {
            "lon": "-122.39971",
            "lat": "37.71502"
          },
          {
            "lon": "-122.39956",
            "lat": "37.7154"
          },
          {
            "lon": "-122.40011",
            "lat": "37.71804"
          },
          {
            "lon": "-122.40093",
            "lat": "37.7211799"
          },
          {
            "lon": "-122.40095",
            "lat": "37.72148"
          },
          {
            "lon": "-122.4021",
            "lat": "37.7241799"
          },
          {
            "lon": "-122.40301",
            "lat": "37.72637"
          },
          {
            "lon": "-122.40367",
            "lat": "37.72797"
          },
          {
            "lon": "-122.40462",
            "lat": "37.73026"
          },
          {
            "lon": "-122.40552",
            "lat": "37.73238"
          }
        ]
      },
      {
        "point": [
          {
            "lon": "-122.44101",
            "lat": "37.71642"
          },
          {
            "lon": "-122.43961",
            "lat": "37.71568"
          },
          {
            "lon": "-122.43759",
            "lat": "37.71477"
          },
          {
            "lon": "-122.43596",
            "lat": "37.71403"
          },
          {
            "lon": "-122.43372",
            "lat": "37.71315"
          },
          {
            "lon": "-122.43303",
            "lat": "37.71295"
          },
          {
            "lon": "-122.42938",
            "lat": "37.71224"
          },
          {
            "lon": "-122.42829",
            "lat": "37.71174"
          },
          {
            "lon": "-122.42576",
            "lat": "37.71072"
          },
          {
            "lon": "-122.42555",
            "lat": "37.71074"
          },
          {
            "lon": "-122.42509",
            "lat": "37.71049"
          },
          {
            "lon": "-122.42456",
            "lat": "37.71011"
          },
          {
            "lon": "-122.42405",
            "lat": "37.70964"
          },
          {
            "lon": "-122.42337",
            "lat": "37.70926"
          },
          {
            "lon": "-122.4231",
            "lat": "37.70908"
          },
          {
            "lon": "-122.4201",
            "lat": "37.70832"
          },
          {
            "lon": "-122.41987",
            "lat": "37.70864"
          }
        ]
      }
    ],
    "lonMax": "-122.3967999",
    "oppositeColor": "000000",
    "latMin": "37.70848"
  },
  "copyright": "All data copyright San Francisco Muni 2017."
}